[{"id":1252646,"coord":{"lon":78.783333,"lat":9.23333},"country":"IN","geoname":{"cl":"P","code":"PPL","parent":1255053},"langs":[{"link":"http://en.wikipedia.org/wiki/Kilakarai"}],"name":"Keelakarai","stat":{"level":1.0,"population":30468},"zoom":9},{"id":1252653,"coord":{"lon":94.51667,"lat":25.966669},"country":"IN","geoname":{"cl":"P","code":"PPL","parent":1262271},"langs":[{"link":"http://en.wikipedia.org/wiki/Zunheboto"}],"name":"Zunheboto","stat":{"level":1.0,"population":29499},"zoom":10},{"id":1252692,"coord":{"lon":83.566673,"lat":25.433331},"country":"IN","geoname":{"cl":"P","code":"PPL","parent":1253626},"langs":[{"link":"http://en.wikipedia.org/wiki/Zamania"}],"name":"Zamania","stat":{"level":1.0,"population":32008},"stations":[{"id":7804,"dist":71,"kf":1}],"zoom":8},{"id":1252698,"coord":{"lon":81.333336,"lat":26.833332},"country":"IN","geoname":{"cl":"P","code":"PPL","parent":1253626},"langs":[{"link":"http://en.wikipedia.org/wiki/Zaidpur"}],"name":"Zaidpur","stat":{"level":1.0,"population":33397},"stations":[{"id":7817,"dist":44,"kf":1}],"zoom":9},{"id":1252699,"coord":{"lon":77.616669,"lat":17.683331},"country":"IN","geoname":{"cl":"P","code":"PPL","parent":1278629},"langs":[{"link":"http://en.wikipedia.org/wiki/Zahirabad"}],"name":"Zahirabad","stat":{"level":1.0,"population":46504},"stations":[{"id":7830,"dist":98,"kf":1},{"id":7831,"dist":82,"kf":1}],"zoom":10},{"id":1252738,"coord":{"lon":74.48333,"lat":20.033331},"country":"IN","geoname":{"cl":"P","code":"PPL","parent":1264418},"langs":[{"link":"http://en.wikipedia.org/wiki/Yeola"}],"name":"Yeola","stat":{"level":1.0,"population":46762},"zoom":11},{"id":1252744,"coord":{"lon":74.716667,"lat":14.96667},"country":"IN","geoname":{"cl":"P","code":"PPL","parent":1267701},"name":"Yellapur","stat":{"level":1.0,"population":19343},"zoom":9},{"id":1252745,"coord":{"lon":80.333328,"lat":17.6},"country":"IN","geoname":{"cl":"P","code":"PPL","parent":1278629},"langs":[{"link":"http://en.wikipedia.org/wiki/Yellandu"}],"name":"Yellandu","stat":{"level":1.0,"population":43787},"zoom":10},{"id":1252758,"coord":{"lon":77.600281,"lat":13.1075},"country":"IN","geoname":{"cl":"P","code":"PPL","parent":1267701},"langs":[{"en":"Yelahanka"},{"link":"http://en.wikipedia.org/wiki/Yelahanka"}],"name":"Yelahanka","stat":{"level":1.0,"population":116447},"stations":[{"id":7823,"dist":15,"kf":1}],"zoom":9},{"id":1252770,"coord":{"lon":78.133331,"lat":20.4},"country":"IN","geoname":{"cl":"P","code":"PPL","parent":1264418},"langs":[{"en":"Yavatmal"},{"link":"http://en.wikipedia.org/wiki/Yavatmal"},{"ro":"Yavatmal"},{"sv":"Yavatmal"}],"name":"Yavatmal","stat":{"level":1.0,"population":128175},"zoom":8},{"id":1252773,"coord":{"lon":75.699997,"lat":21.16667},"country":"IN","geoname":{"cl":"P","code":"PPL","parent":1264418},"name":"Yaval","stat":{"level":1.0,"population":32881},"zoom":11},{"id":1252795,"coord":{"lon":82.216667,"lat":16.73333},"country":"IN","geoname":{"cl":"P","code":"PPL","parent":1278629},"langs":[{"ru":"Янам"}],"name":"Yanam","stat":{"level":1.0,"population":36896},"zoom":10},{"id":1252797,"coord":{"lon":77.283333,"lat":30.1},"country":"IN","geoname":{"cl":"P","code":"PPL","parent":1270260},"langs":[{"en":"Yamunanagar"},{"link":"http://en.wikipedia.org/wiki/Yamunanagar"},{"sv":"Yamunanagar"}],"name":"Yamunanagar","stat":{"level":1.0,"population":208931},"zoom":9},{"id":1252822,"coord":{"lon":77.133331,"lat":16.76667},"country":"IN","geoname":{"cl":"P","code":"PPL","parent":1267701},"langs":[{"en":"Yadgir"},{"link":"http://en.wikipedia.org/wiki/Yadgir"}],"name":"Yadgir","stat":{"level":1.0,"population":65376},"zoom":8},{"id":1252840,"coord":{"lon":94.26667,"lat":26.1},"country":"IN","geoname":{"cl":"P","code":"PPL","parent":1262271},"langs":[{"link":"http://en.wikipedia.org/wiki/Wokha"}],"name":"Wokha","stat":{"level":1.0,"population":54010},"zoom":8},{"id":1252885,"coord":{"lon":77.166672,"lat":27.0},"country":"IN","geoname":{"cl":"P","code":"PPL","parent":1258899},"name":"Wer","stat":{"level":1.0,"population":18268},"zoom":11},{"id":1252887,"coord":{"lon":76.800003,"lat":11.36667},"country":"IN","geoname":{"cl":"P","code":"PPL","parent":1255053},"langs":[{"link":"http://en.wikipedia.org/wiki/Wellington%2C_Tamil_Nadu"},{"ru":"Веллингтон"}],"name":"Wellington","stat":{"level":1.0,"population":20254},"stations":[{"id":7825,"dist":45,"kf":1},{"id":7828,"dist":95,"kf":1}],"zoom":12},{"id":1252892,"coord":{"lon":79.050003,"lat":28.216669},"country":"IN","geoname":{"cl":"P","code":"PPL","parent":1253626},"langs":[{"link":"http://en.wikipedia.org/wiki/Wazirganj"}],"name":"Wazirganj","stat":{"level":1.0,"population":19372},"zoom":11},{"id":1252908,"coord":{"lon":77.150002,"lat":20.1},"country":"IN","geoname":{"cl":"P","code":"PPL","parent":1264418},"langs":[{"link":"http://en.wikipedia.org/wiki/Washim"}],"name":"Washim","stat":{"level":1.0,"population":68622},"zoom":10},{"id":1252919,"coord":{"lon":78.26667,"lat":21.466669},"country":"IN","geoname":{"cl":"P","code":"PPL","parent":1264542},"langs":[{"link":"http://en.wikipedia.org/wiki/Warud"}],"name":"Warud","stat":{"level":1.0,"population":47817},"stations":[{"id":7775,"dist":91,"kf":1}],"zoom":9},{"id":1252925,"coord":{"lon":79.0,"lat":20.23333},"country":"IN","geoname":{"cl":"P","code":"PPL","parent":1264418},"langs":[{"link":"http://en.wikipedia.org/wiki/Warora"}],"name":"Warora","stat":{"level":1.0,"population":41523},"stations":[{"id":7775,"dist":95,"kf":1}],"zoom":10},{"id":1252930,"coord":{"lon":85.633331,"lat":25.01667},"country":"IN","geoname":{"cl":"P","code":"PPL","parent":1275715},"name":"Waris Aliganj","stat":{"level":1.0,"population":35243},"stations":[{"id":7796,"dist":83,"kf":1}],"zoom":10},{"id":1252942,"coord":{"lon":78.616669,"lat":20.75},"country":"IN","geoname":{"cl":"P","code":"PPL","parent":1264418},"name":"Wardha","stat":{"level":1.0,"population":113759},"stations":[{"id":7775,"dist":58,"kf":1}],"zoom":9},{"id":1252946,"coord":{"lon":80.033333,"lat":21.75},"country":"IN","geoname":{"cl":"P","code":"PPL","parent":1264542},"langs":[{"link":"http://en.wikipedia.org/wiki/Wara_Seoni"}],"name":"Waraseoni","stat":{"level":1.0,"population":23800},"zoom":11},{"id":1252948,"coord":{"lon":79.583328,"lat":18.0},"country":"IN","geoname":{"cl":"P","code":"PPL","parent":1278629},"name":"Warangal","stat":{"level":1.0,"population":557802},"zoom":7},{"id":1252956,"coord":{"lon":78.066673,"lat":16.366671},"country":"IN","geoname":{"cl":"P","code":"PPL","parent":1278629},"name":"Wanparti","stat":{"level":1.0,"population":55182},"zoom":10},{"id":1252958,"coord":{"lon":70.933327,"lat":22.616671},"country":"IN","geoname":{"cl":"P","code":"PPL","parent":1270770},"langs":[{"link":"http://en.wikipedia.org/wiki/Wankaner"}],"name":"Wankaner","stat":{"level":1.0,"population":47814},"stations":[{"id":34351,"dist":40,"kf":1}],"zoom":10},{"id":1252960,"coord":{"lon":78.949997,"lat":20.066669},"country":"IN","geoname":{"cl":"P","code":"PPL","parent":1264418},"langs":[{"link":"http://en.wikipedia.org/wiki/Wani%2C_Maharashtra"},{"ru":"Ваня"}],"name":"Wani","stat":{"level":1.0,"population":57288},"zoom":9},{"id":1252997,"coord":{"lon":79.383331,"lat":12.93333},"country":"IN","geoname":{"cl":"P","code":"PPL","parent":1255053},"langs":[{"link":"http://en.wikipedia.org/wiki/Walajapet"}],"name":"Walajapet","stat":{"level":1.0,"population":30256},"stations":[{"id":7834,"dist":88,"kf":1}],"zoom":8},{"id":1253013,"coord":{"lon":73.900002,"lat":17.933331},"country":"IN","geoname":{"cl":"P","code":"PPL","parent":1264418},"langs":[{"link":"http://en.wikipedia.org/wiki/Wai%2C_Maharashtra"},{"ru":"Вай"}],"name":"Wai","stat":{"level":1.0,"population":32957},"zoom":9},{"id":1253041,"coord":{"lon":76.98333,"lat":17.066669},"country":"IN","geoname":{"cl":"P","code":"PPL","parent":1267701},"langs":[{"link":"http://en.wikipedia.org/wiki/Wadi%2C_Karnataka"},{"ru":"Вади"}],"name":"Wadi","stat":{"level":1.0,"population":30602},"zoom":12},{"id":1253074,"coord":{"lon":73.400002,"lat":21.116671},"country":"IN","geoname":{"cl":"P","code":"PPL","parent":1270770},"langs":[{"link":"http://en.wikipedia.org/wiki/Vyara"}],"name":"Vyara","stat":{"level":1.0,"population":38168},"zoom":10},{"id":1253077,"coord":{"lon":80.849998,"lat":16.366671},"country":"IN","geoname":{"cl":"P","code":"PPL","parent":1278629},"langs":[{"link":"http://en.wikipedia.org/wiki/Vuyyuru"}],"name":"Vuyyuru","stat":{"level":1.0,"population":36755},"zoom":11},{"id":1253079,"coord":{"lon":77.699997,"lat":27.58333},"country":"IN","geoname":{"cl":"P","code":"PPL","parent":1253626},"name":"Vrindavan","stat":{"level":1.0,"population":60195},"zoom":11},{"id":1253080,"coord":{"lon":79.333328,"lat":11.5},"country":"IN","geoname":{"cl":"P","code":"PPL","parent":1255053},"name":"Vriddhachalam","stat":{"level":1.0,"population":61498},"zoom":10},{"id":1253084,"coord":{"lon":83.416672,"lat":18.116671},"country":"IN","geoname":{"cl":"P","code":"PPL","parent":1278629},"name":"Vizianagaram","stat":{"level":1.0,"population":179358},"zoom":9},{"id":1253091,"coord":{"lon":74.550003,"lat":17.283331},"country":"IN","geoname":{"cl":"P","code":"PPL","parent":1264418},"langs":[{"link":"http://en.wikipedia.org/wiki/Vita%2C_Maharashtra"},{"ru":"Вита"}],"name":"Vite","stat":{"level":1.0,"population":45973},"zoom":9},{"id":1253095,"coord":{"lon":72.550003,"lat":23.700001},"country":"IN","geoname":{"cl":"P","code":"PPL","parent":1270770},"langs":[{"en":"Visnagar"},{"link":"http://en.wikipedia.org/wiki/Visnagar"},{"pt":"Visnagar"}],"name":"Visnagar","stat":{"level":1.0,"population":68619},"stations":[{"id":7758,"dist":69,"kf":1}],"zoom":9},{"id":1253102,"coord":{"lon":83.209251,"lat":17.690041},"country":"IN","geoname":{"cl":"P","code":"PPL","parent":1278629},"langs":[{"bpy":"বিশাখাপত্তম"},{"de":"Visakhapatnam"},{"en":"Vizag"},{"es":"Visakhapatnam"},{"fi":"Visakhapatnam"},{"ja":"ヴィシャーカパトナム"},{"link":"http://en.wikipedia.org/wiki/Visakhapatnam"},{"lt":"Visakhapatnamas"},{"nl":"Vishakhapatnam"},{"pt":"Vishakhapatnam"},{"ro":"Vishakhapatnam"},{"ru":"Вишакхапатнам"},{"sv":"Visakhapatnam"},{"ta":"விசாகப்பட்டிணம்"},{"te":"విశాఖపట్నం"}],"name":"Vishakhapatnam","stat":{"level":1.0,"population":1063178},"zoom":1},{"id":1253105,"coord":{"lon":70.683327,"lat":21.383329},"country":"IN","geoname":{"cl":"P","code":"PPL","parent":1270770},"langs":[{"link":"http://en.wikipedia.org/wiki/Visavadar"}],"name":"Visavadar","stat":{"level":1.0,"population":18382},"zoom":10},{"id":1253113,"coord":{"lon":77.966667,"lat":9.6},"country":"IN","geoname":{"cl":"P","code":"PPL","parent":1255053},"name":"Virudunagar","stat":{"level":1.0,"population":73273},"zoom":11},{"id":1253127,"coord":{"lon":77.533333,"lat":8.7},"country":"IN","geoname":{"cl":"P","code":"PPL","parent":1255053},"name":"Viravanallur","stat":{"level":1.0,"population":19689},"stations":[{"id":7837,"dist":71,"kf":1}],"zoom":12},{"id":1253132,"coord":{"lon":75.800003,"lat":12.2},"country":"IN","geoname":{"cl":"P","code":"PPL","parent":1267701},"name":"Virarajendrapet","stat":{"level":1.0,"population":15976},"zoom":10},{"id":1253133,"coord":{"lon":72.800003,"lat":19.466669},"country":"IN","geoname":{"cl":"P","code":"PPL","parent":1264418},"langs":[{"link":"http://en.wikipedia.org/wiki/Virar"}],"name":"Virar","stat":{"level":1.0,"population":150357},"zoom":9},{"id":1253150,"coord":{"lon":79.75,"lat":16.049999},"country":"IN","geoname":{"cl":"P","code":"PPL","parent":1278629},"langs":[{"en":"Vinukonda"},{"link":"http://en.wikipedia.org/wiki/Vinukonda"}],"name":"Vinukonda","stat":{"level":1.0,"population":61326},"zoom":9},{"id":1253166,"coord":{"lon":79.48333,"lat":11.93333},"country":"IN","geoname":{"cl":"P","code":"PPL","parent":1255053},"langs":[{"link":"http://en.wikipedia.org/wiki/Viluppuram"}],"name":"Villupuram","stat":{"level":1.0,"population":97380},"zoom":9},{"id":1253182,"coord":{"lon":77.900002,"lat":17.33333},"country":"IN","geoname":{"cl":"P","code":"PPL","parent":1278629},"langs":[{"link":"http://en.wikipedia.org/wiki/Vikarabad"}],"name":"Vikarabad","stat":{"level":1.0,"population":43337},"stations":[{"id":7831,"dist":39,"kf":1}],"zoom":9},{"id":1253184,"coord":{"lon":80.616669,"lat":16.51667},"country":"IN","geoname":{"cl":"P","code":"PPL","parent":1278629},"name":"Vijayawada","stat":{"level":1.0,"population":874587},"zoom":7},{"id":1253193,"coord":{"lon":72.75,"lat":23.566669},"country":"IN","geoname":{"cl":"P","code":"PPL","parent":1270770},"langs":[{"link":"http://en.wikipedia.org/wiki/Vijapur"}],"name":"Vijapur","stat":{"level":1.0,"population":24297},"stations":[{"id":7758,"dist":55,"kf":1}],"zoom":10},{"id":1253200,"coord":{"lon":77.816673,"lat":23.533331},"country":"IN","geoname":{"cl":"P","code":"PPL","parent":1264542},"langs":[{"en":"Vidisha"},{"link":"http://en.wikipedia.org/wiki/Vidisha"},{"sv":"Vidisha"}],"name":"Vidisha","stat":{"level":1.0,"population":140045},"zoom":9},{"id":1253219,"coord":{"lon":76.933327,"lat":10.56667},"country":"IN","geoname":{"cl":"P","code":"PPL","parent":1255053},"name":"Vettaikkaranpudur","stat":{"level":1.0,"population":18128},"stations":[{"id":7825,"dist":54,"kf":1}],"zoom":11},{"id":1253220,"coord":{"lon":80.316673,"lat":15.78333},"country":"IN","geoname":{"cl":"P","code":"PPL","parent":1278629},"langs":[{"link":"http://en.wikipedia.org/wiki/Vetapalem"}],"name":"Vetapalem","stat":{"level":1.0,"population":38007},"zoom":9},{"id":1253237,"coord":{"lon":70.366669,"lat":20.9},"country":"IN","geoname":{"cl":"P","code":"PPL","parent":1270770},"name":"Veraval","stat":{"level":1.0,"population":163326},"zoom":8},{"id":1253242,"coord":{"lon":83.215767,"lat":17.77844},"country":"IN","geoname":{"cl":"P","code":"PPL","parent":1278629},"name":"Vepagunta","stat":{"level":1.0,"population":26881},"zoom":11},{"id":1253251,"coord":{"lon":79.583328,"lat":13.96667},"country":"IN","geoname":{"cl":"P","code":"PPL","parent":1278629},"langs":[{"link":"http://en.wikipedia.org/wiki/Venkatagiri"}],"name":"Venkatagiri","stat":{"level":1.0,"population":32761},"zoom":10},{"id":1253275,"coord":{"lon":78.883331,"lat":18.466669},"country":"IN","geoname":{"cl":"P","code":"PPL","parent":1278629},"langs":[{"link":"http://en.wikipedia.org/wiki/Vemulavada"}],"name":"Vemalwada","stat":{"level":1.0,"population":22920},"zoom":11},{"id":1253278,"coord":{"lon":78.01667,"lat":11.1},"country":"IN","geoname":{"cl":"P","code":"PPL","parent":1255053},"langs":[{"link":"http://en.wikipedia.org/wiki/Velur%2C_Namakkal"}],"name":"Velur","stat":{"level":1.0,"population":18951},"stations":[{"id":7836,"dist":86,"kf":1}],"zoom":10},{"id":1253286,"coord":{"lon":79.133331,"lat":12.93333},"country":"IN","geoname":{"cl":"P","code":"PPL","parent":1255053},"name":"Vellore","stat":{"level":1.0,"population":177081},"zoom":8},{"id":1253315,"coord":{"lon":73.566673,"lat":22.683331},"country":"IN","geoname":{"cl":"P","code":"PPL","parent":1270770},"langs":[{"en":"Vejalpur"},{"link":"http://en.wikipedia.org/wiki/Vejalpur"},{"pt":"Vejalpur"}],"name":"Vejalpur","stat":{"level":1.0,"population":121610},"zoom":9},{"id":1253330,"coord":{"lon":79.849998,"lat":10.36667},"country":"IN","geoname":{"cl":"P","code":"PPL","parent":1255053},"langs":[{"link":"http://en.wikipedia.org/wiki/Vedaranyam"}],"name":"Vedaraniyam","stat":{"level":1.0,"population":32245},"zoom":8},{"id":1253352,"coord":{"lon":77.76667,"lat":10.16667},"country":"IN","geoname":{"cl":"P","code":"PPL","parent":1255053},"name":"Vattalkundu","stat":{"level":1.0,"population":22638},"zoom":10},{"id":1253357,"coord":{"lon":77.416672,"lat":9.23333},"country":"IN","geoname":{"cl":"P","code":"PPL","parent":1255053},"langs":[{"link":"http://en.wikipedia.org/wiki/Vasudevanallur"}],"name":"Vasudevanallur","stat":{"level":1.0,"population":19021},"stations":[{"id":7837,"dist":99,"kf":1}],"zoom":10},{"id":1253363,"coord":{"lon":73.26667,"lat":19.41667},"country":"IN","geoname":{"cl":"P","code":"PPL","parent":1264418},"name":"Vasind","stat":{"level":1.0,"population":16970},"zoom":10},{"id":1253367,"coord":{"lon":73.815681,"lat":15.39585},"country":"IN","geoname":{"cl":"P","code":"PPL","parent":1271157},"langs":[{"en":"Vasco"},{"link":"http://en.wikipedia.org/wiki/Vasco_da_Gama%2C_Goa"},{"ru":"Васко-да-Гама"}],"name":"Vasco Da Gama","stat":{"level":1.0,"population":100485},"zoom":14},{"id":1253372,"name":"Vasai","coord":{"lon":72.8,"lat":19.47},"country":"IN","zoom":9.0,"geoname":{"cl":"P","code":"PPL","parent":1264418},"stat":{"population":150357.0,"level":1.0},"langs":[{"link":"http://en.wikipedia.org/wiki/Vasai"}]},{"id":1253374,"coord":{"lon":72.73333,"lat":22.66667},"country":"IN","geoname":{"cl":"P","code":"PPL","parent":1270770},"name":"Vasa","stat":{"level":1.0,"population":15934},"stations":[{"id":7758,"dist":47,"kf":1}],"zoom":11},{"id":1253392,"coord":{"lon":76.706711,"lat":8.7341},"country":"IN","geoname":{"cl":"P","code":"PPL","parent":1267254},"langs":[{"link":"http://en.wikipedia.org/wiki/Varkala"},{"ru":"Варкала"}],"name":"Varkkallai","stat":{"level":1.0,"population":43276},"stations":[{"id":7837,"dist":36,"kf":1}],"zoom":10},{"id":1253403,"coord":{"lon":75.900002,"lat":21.01667},"country":"IN","geoname":{"cl":"P","code":"PPL","parent":1264418},"langs":[{"link":"http://en.wikipedia.org/wiki/Varangaon"}],"name":"Varangaon","stat":{"level":1.0,"population":44067},"zoom":11},{"id":1253405,"coord":{"lon":83.0,"lat":25.333332},"country":"IN","geoname":{"cl":"P","code":"PPL","parent":1253626},"name":"Varanasi","stat":{"level":1.0,"population":1164404},"stations":[{"id":7804,"dist":19,"kf":1}],"zoom":6},{"id":1253437,"coord":{"lon":78.616669,"lat":12.68333},"country":"IN","geoname":{"cl":"P","code":"PPL","parent":1255053},"langs":[{"link":"http://en.wikipedia.org/wiki/Vaniyambadi"}],"name":"Vaniyambadi","stat":{"level":1.0,"population":90288},"zoom":10},{"id":1253452,"coord":{"lon":79.616669,"lat":12.5},"country":"IN","geoname":{"cl":"P","code":"PPL","parent":1255053},"langs":[{"link":"http://en.wikipedia.org/wiki/Vandavasi"}],"name":"Vandavasi","stat":{"level":1.0,"population":31530},"stations":[{"id":7834,"dist":82,"kf":1}],"zoom":10},{"id":1253468,"coord":{"lon":72.933327,"lat":20.633329},"country":"IN","geoname":{"cl":"P","code":"PPL","parent":1270770},"langs":[{"link":"http://en.wikipedia.org/wiki/Valsad"}],"name":"Valsad","stat":{"level":1.0,"population":72929},"zoom":8},{"id":1253472,"coord":{"lon":76.966667,"lat":10.36667},"country":"IN","geoname":{"cl":"P","code":"PPL","parent":1255053},"langs":[{"en":"Valparai"},{"link":"http://en.wikipedia.org/wiki/Valparai"},{"pt":"Valparai"}],"name":"Valparai","stat":{"level":1.0,"population":90353},"stations":[{"id":7825,"dist":78,"kf":1}],"zoom":9},{"id":1253482,"coord":{"lon":72.900002,"lat":22.533331},"country":"IN","geoname":{"cl":"P","code":"PPL","parent":1270770},"langs":[{"link":"http://en.wikipedia.org/wiki/Vallabh_Vidhyanagar"}],"name":"Vallabh Vidyanagar","stat":{"level":1.0,"population":32581},"stations":[{"id":7758,"dist":67,"kf":1}],"zoom":12},{"id":1253512,"coord":{"lon":71.866669,"lat":21.883329},"country":"IN","geoname":{"cl":"P","code":"PPL","parent":1270770},"name":"Valabhipur","stat":{"level":1.0,"population":18663},"zoom":10},{"id":1253544,"coord":{"lon":76.400002,"lat":9.76667},"country":"IN","geoname":{"cl":"P","code":"PPL","parent":1267254},"langs":[{"link":"http://en.wikipedia.org/wiki/Vaikom"}],"name":"Vaikam","stat":{"level":1.0,"population":22807},"zoom":11},{"id":1253545,"coord":{"lon":74.73333,"lat":19.91667},"country":"IN","geoname":{"cl":"P","code":"PPL","parent":1264418},"langs":[{"link":"http://en.wikipedia.org/wiki/Vaijapur"}],"name":"Vaijapur","stat":{"level":1.0,"population":40043},"zoom":10},{"id":1253573,"coord":{"lon":73.199997,"lat":22.299999},"country":"IN","geoname":{"cl":"P","code":"PPL","parent":1270770},"name":"Vadodara","stat":{"level":1.0,"population":1409476},"zoom":8},{"id":1253577,"coord":{"lon":72.633331,"lat":23.783331},"country":"IN","geoname":{"cl":"P","code":"PPL","parent":1270770},"langs":[{"link":"http://en.wikipedia.org/wiki/Vadnagar"}],"name":"Vadnagar","stat":{"level":1.0,"population":24832},"stations":[{"id":7758,"dist":77,"kf":1}],"zoom":10},{"id":1253578,"coord":{"lon":79.800003,"lat":14.31667},"country":"IN","geoname":{"cl":"P","code":"PPL","parent":1278629},"name":"Vadlapudi","stat":{"level":1.0,"population":17881},"zoom":10},{"id":1253579,"coord":{"lon":77.949997,"lat":10.08333},"country":"IN","geoname":{"cl":"P","code":"PPL","parent":1255053},"name":"Vadippatti","stat":{"level":1.0,"population":22441},"zoom":11},{"id":1253595,"coord":{"lon":78.083328,"lat":10.46667},"country":"IN","geoname":{"cl":"P","code":"PPL","parent":1255053},"langs":[{"link":"http://en.wikipedia.org/wiki/Vadamadurai"}],"name":"Vadamadurai","stat":{"level":1.0,"population":15886},"stations":[{"id":7836,"dist":76,"kf":1}],"zoom":11},{"id":1253605,"coord":{"lon":77.650002,"lat":8.38333},"country":"IN","geoname":{"cl":"P","code":"PPL","parent":1255053},"name":"Vadakku Valliyur","stat":{"level":1.0,"population":24749},"stations":[{"id":7837,"dist":81,"kf":1}],"zoom":11},{"id":1253610,"coord":{"lon":73.133331,"lat":19.65},"country":"IN","geoname":{"cl":"P","code":"PPL","parent":1264418},"name":"Vada","stat":{"level":1.0,"population":15474},"zoom":9},{"id":1253623,"coord":{"lon":79.76667,"lat":12.6},"country":"IN","geoname":{"cl":"P","code":"PPL","parent":1255053},"langs":[{"link":"http://en.wikipedia.org/wiki/Uttiramerur"}],"name":"Uttiramerur","stat":{"level":1.0,"population":24315},"stations":[{"id":7834,"dist":62,"kf":1}],"zoom":11},{"id":1253628,"coord":{"lon":78.449997,"lat":30.73333},"country":"IN","geoname":{"cl":"P","code":"PPL","parent":1444366},"name":"Uttarkashi","stat":{"level":1.0,"population":17123},"zoom":8},{"id":1253635,"coord":{"lon":77.333328,"lat":9.8},"country":"IN","geoname":{"cl":"P","code":"PPL","parent":1255053},"name":"Uttamapalaiyam","stat":{"level":1.0,"population":22778},"zoom":12},{"id":1253638,"coord":{"lon":82.416672,"lat":27.316669},"country":"IN","geoname":{"cl":"P","code":"PPL","parent":1253626},"langs":[{"link":"http://en.wikipedia.org/wiki/Utraula"}],"name":"Utraula","stat":{"level":1.0,"population":28437},"zoom":10},{"id":1253671,"coord":{"lon":77.800003,"lat":9.96667},"country":"IN","geoname":{"cl":"P","code":"PPL","parent":1255053},"langs":[{"link":"http://en.wikipedia.org/wiki/Usilampatti"}],"name":"Usilampatti","stat":{"level":1.0,"population":30675},"zoom":11},{"id":1253673,"coord":{"lon":79.25,"lat":27.816668},"country":"IN","geoname":{"cl":"P","code":"PPL","parent":1253626},"langs":[{"link":"http://en.wikipedia.org/wiki/Usehat"}],"name":"Usehat","stat":{"level":1.0,"population":15068},"zoom":11},{"id":1253698,"coord":{"lon":77.26667,"lat":14.95},"country":"IN","geoname":{"cl":"P","code":"PPL","parent":1278629},"langs":[{"link":"http://en.wikipedia.org/wiki/Uravakonda"}],"name":"Uravakonda","stat":{"level":1.0,"population":33495},"zoom":10},{"id":1253702,"coord":{"lon":72.93972,"lat":18.87694},"country":"IN","geoname":{"cl":"P","code":"PPL","parent":1264418},"langs":[{"link":"http://en.wikipedia.org/wiki/Uran"},{"ru":"Уран"}],"name":"Uran","stat":{"level":1.0,"population":25598},"zoom":10},{"id":1253736,"coord":{"lon":70.283333,"lat":21.73333},"country":"IN","geoname":{"cl":"P","code":"PPL","parent":1270770},"langs":[{"link":"http://en.wikipedia.org/wiki/Upleta"}],"name":"Upleta","stat":{"level":1.0,"population":56354},"stations":[{"id":34351,"dist":80,"kf":1}],"zoom":10},{"id":1253744,"coord":{"lon":78.559113,"lat":17.405769},"country":"IN","geoname":{"cl":"P","code":"PPL","parent":1278629},"langs":[{"link":"http://en.wikipedia.org/wiki/Uppal_Kalan"}],"name":"Uppal Kalan","stat":{"level":1.0,"population":118259},"stations":[{"id":7830,"dist":22,"kf":1},{"id":7831,"dist":34,"kf":1}],"zoom":12},{"id":1253747,"coord":{"lon":80.5,"lat":26.533331},"country":"IN","geoname":{"cl":"P","code":"PPL","parent":1253626},"langs":[{"link":"http://en.wikipedia.org/wiki/Unnao"}],"name":"Unnao","stat":{"level":1.0,"population":161671},"stations":[{"id":7817,"dist":46,"kf":1}],"zoom":11},{"id":1253750,"coord":{"lon":72.400002,"lat":23.799999},"country":"IN","geoname":{"cl":"P","code":"PPL","parent":1270770},"langs":[{"link":"http://en.wikipedia.org/wiki/Unjha"}],"name":"Unjha","stat":{"level":1.0,"population":54620},"stations":[{"id":7758,"dist":83,"kf":1}],"zoom":10},{"id":1253754,"coord":{"lon":75.566673,"lat":23.33333},"country":"IN","geoname":{"cl":"P","code":"PPL","parent":1264542},"langs":[{"link":"http://en.wikipedia.org/wiki/Unhel"}],"name":"Unhel","stat":{"level":1.0,"population":15837},"zoom":10},{"id":1253782,"coord":{"lon":76.283333,"lat":31.48333},"country":"IN","geoname":{"cl":"P","code":"PPL","parent":1270101},"langs":[{"link":"http://en.wikipedia.org/wiki/Una%2C_Himachal_Pradesh"}],"name":"Una","stat":{"level":1.0,"population":17569},"zoom":9},{"id":1253783,"coord":{"lon":71.033333,"lat":20.816669},"country":"IN","geoname":{"cl":"P","code":"PPL","parent":1270770},"langs":[{"link":"http://en.wikipedia.org/wiki/Una%2C_Gujarat"}],"name":"Una","stat":{"level":1.0,"population":56545},"zoom":9},{"id":1253785,"coord":{"lon":77.254173,"lat":29.584721},"country":"IN","geoname":{"cl":"P","code":"PPL","parent":1253626},"name":"Un","stat":{"level":1.0,"population":15007},"zoom":12},{"id":1253786,"coord":{"lon":71.76667,"lat":23.883329},"country":"IN","geoname":{"cl":"P","code":"PPL","parent":1270770},"langs":[{"link":"http://en.wikipedia.org/wiki/Un%2C_Surat"}],"name":"Un","stat":{"level":1.0,"population":30671},"zoom":10},{"id":1253805,"coord":{"lon":73.116669,"lat":22.700001},"country":"IN","geoname":{"cl":"P","code":"PPL","parent":1270770},"langs":[{"link":"http://en.wikipedia.org/wiki/Umreth"}],"name":"Umreth","stat":{"level":1.0,"population":32802},"stations":[{"id":7758,"dist":65,"kf":1}],"zoom":10},{"id":1253807,"coord":{"lon":79.333328,"lat":20.85},"country":"IN","geoname":{"cl":"P","code":"PPL","parent":1264418},"langs":[{"link":"http://en.wikipedia.org/wiki/Umred"}],"name":"Umred","stat":{"level":1.0,"population":51794},"stations":[{"id":7775,"dist":39,"kf":1}],"zoom":9},{"id":1253860,"coord":{"lon":82.216667,"lat":19.66667},"country":"IN","geoname":{"cl":"P","code":"PPL","parent":1444364},"name":"Umarkot","stat":{"level":1.0,"population":27545},"zoom":9},{"id":1253861,"coord":{"lon":77.699997,"lat":19.6},"country":"IN","geoname":{"cl":"P","code":"PPL","parent":1264418},"langs":[{"link":"http://en.wikipedia.org/wiki/Umarkhed"}],"name":"Umarkhed","stat":{"level":1.0,"population":35265},"zoom":9},{"id":1253863,"coord":{"lon":80.833328,"lat":23.533331},"country":"IN","geoname":{"cl":"P","code":"PPL","parent":1264542},"name":"Umaria","stat":{"level":1.0,"population":29740},"zoom":10},{"id":1253870,"coord":{"lon":76.616669,"lat":17.83333},"country":"IN","geoname":{"cl":"P","code":"PPL","parent":1264418},"langs":[{"link":"http://en.wikipedia.org/wiki/Umarga"}],"name":"Umarga","stat":{"level":1.0,"population":32181},"zoom":8},{"id":1253888,"coord":{"lon":74.849998,"lat":12.8},"country":"IN","geoname":{"cl":"P","code":"PPL","parent":1267701},"langs":[{"link":"http://en.wikipedia.org/wiki/Ullal"}],"name":"Ullal","stat":{"level":1.0,"population":59116},"zoom":11},{"id":1253894,"coord":{"lon":73.150002,"lat":19.216669},"country":"IN","geoname":{"cl":"P","code":"PPL","parent":1264418},"langs":[{"link":"http://en.wikipedia.org/wiki/Ulhasnagar"}],"name":"Ulhasnagar","stat":{"level":1.0,"population":516584},"zoom":12},{"id":1253914,"coord":{"lon":75.76667,"lat":23.183331},"country":"IN","geoname":{"cl":"P","code":"PPL","parent":1264542},"name":"Ujjain","stat":{"level":1.0,"population":457346},"zoom":9},{"id":1253918,"coord":{"lon":79.01667,"lat":28.016666},"country":"IN","geoname":{"cl":"P","code":"PPL","parent":1253626},"langs":[{"link":"http://en.wikipedia.org/wiki/Ujhani"}],"name":"Ujhani","stat":{"level":1.0,"population":56309},"zoom":10},{"id":1253944,"coord":{"lon":77.25,"lat":10.58333},"country":"IN","geoname":{"cl":"P","code":"PPL","parent":1255053},"name":"Udumalaippettai","stat":{"level":1.0,"population":58571},"stations":[{"id":7825,"dist":54,"kf":1}],"zoom":10},{"id":1253952,"coord":{"lon":74.75,"lat":13.35},"country":"IN","geoname":{"cl":"P","code":"PPL","parent":1267701},"name":"Udipi","stat":{"level":1.0,"population":129113},"zoom":9},{"id":1253956,"coord":{"lon":75.133331,"lat":32.933331},"country":"IN","geoname":{"cl":"P","code":"PPL","parent":1269320},"langs":[{"link":"http://en.wikipedia.org/wiki/Udhampur"}],"name":"Udhampur","stat":{"level":1.0,"population":80447},"stations":[{"id":7153,"dist":73,"kf":1}],"zoom":8},{"id":1253958,"coord":{"lon":77.116669,"lat":18.383329},"country":"IN","geoname":{"cl":"P","code":"PPL","parent":1264418},"langs":[{"link":"http://en.wikipedia.org/wiki/Udgir"}],"name":"Udgir","stat":{"level":1.0,"population":101064},"zoom":9},{"id":1253972,"coord":{"lon":78.01667,"lat":8.43333},"country":"IN","geoname":{"cl":"P","code":"PPL","parent":1255053},"name":"Udankudi","stat":{"level":1.0,"population":19008},"zoom":11},{"id":1253977,"coord":{"lon":92.133331,"lat":26.76667},"country":"IN","geoname":{"cl":"P","code":"PPL","parent":1278253},"langs":[{"link":"http://en.wikipedia.org/wiki/Odalguri"}],"name":"Udalguri","stat":{"level":1.0,"population":15935},"zoom":9},{"id":1253984,"coord":{"lon":78.5,"lat":23.08333},"country":"IN","geoname":{"cl":"P","code":"PPL","parent":1264542},"langs":[{"link":"http://en.wikipedia.org/wiki/Udaipura"}],"name":"Udaipura","stat":{"level":1.0,"population":15473},"zoom":10},{"id":1253985,"coord":{"lon":75.48333,"lat":27.716669},"country":"IN","geoname":{"cl":"P","code":"PPL","parent":1258899},"name":"Udaipur","stat":{"level":1.0,"population":30264},"zoom":10},{"id":1253986,"coord":{"lon":73.691826,"lat":24.571167},"country":"IN","geoname":{"cl":"P","code":"PPL","parent":1258899},"name":"Udaipur","stat":{"level":1.0,"population":422784},"zoom":7},{"id":1253987,"coord":{"lon":91.48333,"lat":23.533331},"country":"IN","geoname":{"cl":"P","code":"PPL","parent":1254169},"langs":[{"link":"http://en.wikipedia.org/wiki/Udaipur%2C_Tripura"},{"ru":"Удайпур"}],"name":"Udaipur","stat":{"level":1.0,"population":23290},"zoom":10},{"id":1253993,"coord":{"lon":76.699997,"lat":11.4},"country":"IN","geoname":{"cl":"P","code":"PPL","parent":1255053},"name":"Ooty","stat":{"level":1.0,"population":98238},"stations":[{"id":7825,"dist":56,"kf":1},{"id":7828,"dist":86,"kf":1}],"zoom":8},{"id":1254000,"coord":{"lon":76.166672,"lat":29.466669},"country":"IN","geoname":{"cl":"P","code":"PPL","parent":1270260},"langs":[{"link":"http://en.wikipedia.org/wiki/Uchana"}],"name":"Uchana","stat":{"level":1.0,"population":15830},"zoom":10},{"id":1254043,"coord":{"lon":78.616669,"lat":11.16667},"country":"IN","geoname":{"cl":"P","code":"PPL","parent":1255053},"name":"Turaiyur","stat":{"level":1.0,"population":32134},"stations":[{"id":7836,"dist":45,"kf":1}],"zoom":10},{"id":1254046,"coord":{"lon":90.22007,"lat":25.519831},"country":"IN","geoname":{"cl":"P","code":"PPL","parent":1263207},"name":"Tura","stat":{"level":1.0,"population":63645},"zoom":9},{"id":1254054,"coord":{"lon":82.550003,"lat":17.35},"country":"IN","geoname":{"cl":"P","code":"PPL","parent":1278629},"name":"Tuni","stat":{"level":1.0,"population":52658},"zoom":9},{"id":1254069,"coord":{"lon":78.283333,"lat":27.200001},"country":"IN","geoname":{"cl":"P","code":"PPL","parent":1253626},"langs":[{"link":"http://en.wikipedia.org/wiki/Tundla"}],"name":"Tundla","stat":{"level":1.0,"population":50939},"zoom":11},{"id":1254080,"coord":{"lon":79.73333,"lat":21.383329},"country":"IN","geoname":{"cl":"P","code":"PPL","parent":1264418},"langs":[{"link":"http://en.wikipedia.org/wiki/Tumsar"}],"name":"Tumsar","stat":{"level":1.0,"population":43218},"stations":[{"id":7775,"dist":77,"kf":1}],"zoom":10},{"id":1254089,"coord":{"lon":77.101669,"lat":13.34222},"country":"IN","geoname":{"cl":"P","code":"PPL","parent":1267701},"name":"Tumkur","stat":{"level":1.0,"population":307359},"stations":[{"id":7823,"dist":67,"kf":1}],"zoom":8},{"id":1254102,"coord":{"lon":82.416672,"lat":27.549999},"country":"IN","geoname":{"cl":"P","code":"PPL","parent":1253626},"langs":[{"link":"http://en.wikipedia.org/wiki/Tulsipur"}],"name":"Tulsipur","stat":{"level":1.0,"population":22486},"zoom":10},{"id":1254111,"coord":{"lon":76.083328,"lat":18.0},"country":"IN","geoname":{"cl":"P","code":"PPL","parent":1264418},"langs":[{"link":"http://en.wikipedia.org/wiki/Tuljapur"}],"name":"Tuljapur","stat":{"level":1.0,"population":35596},"zoom":10},{"id":1254131,"coord":{"lon":89.666672,"lat":26.316669},"country":"IN","geoname":{"cl":"P","code":"PPL","parent":1252881},"langs":[{"link":"http://en.wikipedia.org/wiki/Tufanganj"}],"name":"Tufanganj","stat":{"level":1.0,"population":20420},"zoom":10},{"id":1254133,"coord":{"lon":94.833328,"lat":26.283331},"country":"IN","geoname":{"cl":"P","code":"PPL","parent":1262271},"langs":[{"link":"http://en.wikipedia.org/wiki/Tuensang"}],"name":"Tuensang","stat":{"level":1.0,"population":33748},"zoom":7},{"id":1254163,"coord":{"lon":76.916672,"lat":8.48333},"country":"IN","geoname":{"cl":"P","code":"PPLA","parent":1267254},"name":"Thiruvananthapuram","stat":{"level":1.0,"population":784153},"stations":[{"id":7837,"dist":0,"kf":1}],"zoom":8},{"id":1254187,"coord":{"lon":76.216667,"lat":10.51667},"country":"IN","geoname":{"cl":"P","code":"PPLA3","parent":1267254},"name":"Trichur","stat":{"level":1.0,"population":325110},"stations":[{"id":7828,"dist":74,"kf":1}],"zoom":9},{"id":1254241,"coord":{"lon":75.783333,"lat":26.16667},"country":"IN","geoname":{"cl":"P","code":"PPL","parent":1258899},"name":"Tonk","stat":{"level":1.0,"population":151331},"stations":[{"id":7814,"dist":72,"kf":1}],"zoom":8},{"id":1254249,"coord":{"lon":79.01667,"lat":9.73333},"country":"IN","geoname":{"cl":"P","code":"PPL","parent":1255053},"name":"Tondi","stat":{"level":1.0,"population":16468},"zoom":9},{"id":1254274,"coord":{"lon":75.900002,"lat":29.700001},"country":"IN","geoname":{"cl":"P","code":"PPL","parent":1270260},"langs":[{"link":"http://en.wikipedia.org/wiki/Tohana"}],"name":"Tohana","stat":{"level":1.0,"population":59749},"zoom":9},{"id":1254282,"coord":{"lon":75.48333,"lat":26.01667},"country":"IN","geoname":{"cl":"P","code":"PPL","parent":1258899},"name":"Todaraisingh","stat":{"level":1.0,"population":22613},"stations":[{"id":7814,"dist":94,"kf":1}],"zoom":9},{"id":1254283,"coord":{"lon":76.816673,"lat":26.91667},"country":"IN","geoname":{"cl":"P","code":"PPL","parent":1258899},"name":"Todabhim","stat":{"level":1.0,"population":22529},"zoom":10},{"id":1254304,"coord":{"lon":83.150002,"lat":20.299999},"country":"IN","geoname":{"cl":"P","code":"PPL","parent":1261029},"langs":[{"link":"http://en.wikipedia.org/wiki/Titlagarh"}],"name":"Titlagarh","stat":{"level":1.0,"population":28405},"zoom":9},{"id":1254309,"coord":{"lon":88.373611,"lat":22.736389},"country":"IN","geoname":{"cl":"P","code":"PPL","parent":1252881},"langs":[{"en":"Titagarh"},{"link":"http://en.wikipedia.org/wiki/Titagarh"},{"pt":"Titagarh"}],"name":"Titagarh","stat":{"level":1.0,"population":127751},"stations":[{"id":7784,"dist":12,"kf":1}],"zoom":13},{"id":1254317,"coord":{"lon":77.883331,"lat":8.33333},"country":"IN","geoname":{"cl":"P","code":"PPL","parent":1255053},"name":"Tisaiyanvilai","stat":{"level":1.0,"population":20395},"zoom":10},{"id":1254322,"coord":{"lon":79.550003,"lat":12.66667},"country":"IN","geoname":{"cl":"P","code":"PPL","parent":1255053},"langs":[{"link":"http://en.wikipedia.org/wiki/Cheyyar"}],"name":"Cheyyar","stat":{"level":1.0,"population":36527},"stations":[{"id":7834,"dist":78,"kf":1}],"zoom":10},{"id":1254327,"coord":{"lon":79.066673,"lat":12.21667},"country":"IN","geoname":{"cl":"P","code":"PPL","parent":1255053},"name":"Tiruvannamalai","stat":{"level":1.0,"population":138243},"zoom":9},{"id":1254331,"coord":{"lon":79.916672,"lat":13.15},"country":"IN","geoname":{"cl":"P","code":"PPL","parent":1255053},"name":"Tiruvallur","stat":{"level":1.0,"population":48095},"stations":[{"id":7834,"dist":33,"kf":1}],"zoom":10},{"id":1254335,"coord":{"lon":76.566673,"lat":9.38333},"country":"IN","geoname":{"cl":"P","code":"PPL","parent":1267254},"langs":[{"link":"http://en.wikipedia.org/wiki/Tiruvalla"}],"name":"Tiruvalla","stat":{"level":1.0,"population":57223},"zoom":11},{"id":1254342,"coord":{"lon":79.633331,"lat":13.18333},"country":"IN","geoname":{"cl":"P","code":"PPL","parent":1255053},"langs":[{"link":"http://en.wikipedia.org/wiki/Thiruttani"}],"name":"Thiruthani","stat":{"level":1.0,"population":39899},"stations":[{"id":7834,"dist":64,"kf":1}],"zoom":11},{"id":1254343,"coord":{"lon":77.833328,"lat":9.48333},"country":"IN","geoname":{"cl":"P","code":"PPL","parent":1255053},"name":"Tiruttangal","stat":{"level":1.0,"population":54499},"zoom":12},{"id":1254346,"coord":{"lon":75.916672,"lat":10.9},"country":"IN","geoname":{"cl":"P","code":"PPL","parent":1267254},"langs":[{"link":"http://en.wikipedia.org/wiki/Tirur"}],"name":"Tirur","stat":{"level":1.0,"population":54934},"stations":[{"id":7828,"dist":27,"kf":1}],"zoom":11},{"id":1254347,"coord":{"lon":78.26667,"lat":9.83333},"country":"IN","geoname":{"cl":"P","code":"PPL","parent":1255053},"name":"Tiruppuvanam","stat":{"level":1.0,"population":22517},"zoom":10},{"id":1254348,"coord":{"lon":77.349998,"lat":11.1},"country":"IN","geoname":{"cl":"P","code":"PPL","parent":1255053},"name":"Tiruppur","stat":{"level":1.0,"population":397521},"stations":[{"id":7825,"dist":35,"kf":1}],"zoom":10},{"id":1254356,"coord":{"lon":78.066673,"lat":9.86667},"country":"IN","geoname":{"cl":"P","code":"PPL","parent":1255053},"name":"Tirupparangunram","stat":{"level":1.0,"population":42696},"zoom":12},{"id":1254360,"coord":{"lon":79.416672,"lat":13.65},"country":"IN","geoname":{"cl":"P","code":"PPL","parent":1278629},"name":"Tirupati","stat":{"level":1.0,"population":250821},"zoom":8},{"id":1254361,"coord":{"lon":77.699997,"lat":8.73333},"country":"IN","geoname":{"cl":"P","code":"PPL","parent":1255053},"name":"Tirunelveli","stat":{"level":1.0,"population":435844},"stations":[{"id":7837,"dist":90,"kf":1}],"zoom":9},{"id":1254373,"coord":{"lon":79.349998,"lat":13.68333},"country":"IN","geoname":{"cl":"P","code":"PPL","parent":1278629},"name":"Tirumala","stat":{"level":1.0,"population":18013},"zoom":12},{"id":1254377,"coord":{"lon":79.199997,"lat":11.95},"country":"IN","geoname":{"cl":"P","code":"PPL","parent":1255053},"langs":[{"link":"http://en.wikipedia.org/wiki/Tirukkoyilur"}],"name":"Tirukkoyilur","stat":{"level":1.0,"population":28337},"zoom":10},{"id":1254385,"coord":{"lon":77.933327,"lat":11.38333},"country":"IN","geoname":{"cl":"P","code":"PPL","parent":1255053},"name":"Tiruchengode","stat":{"level":1.0,"population":87123},"zoom":10},{"id":1254388,"coord":{"lon":78.683327,"lat":10.81667},"country":"IN","geoname":{"cl":"P","code":"PPL","parent":1255053},"name":"Tiruchchirappalli","stat":{"level":1.0,"population":775484},"stations":[{"id":7836,"dist":5,"kf":1}],"zoom":7},{"id":1254390,"coord":{"lon":78.116669,"lat":8.48333},"country":"IN","geoname":{"cl":"P","code":"PPL","parent":1255053},"langs":[{"link":"http://en.wikipedia.org/wiki/Thiruchendur"}],"name":"Tiruchchendur","stat":{"level":1.0,"population":29872},"zoom":12},{"id":1254396,"coord":{"lon":75.23333,"lat":13.7},"country":"IN","geoname":{"cl":"P","code":"PPL","parent":1267701},"langs":[{"link":"http://en.wikipedia.org/wiki/Thirthahalli"}],"name":"Tirthahalli","stat":{"level":1.0,"population":15422},"zoom":10},{"id":1254420,"coord":{"lon":76.478333,"lat":13.25861},"country":"IN","geoname":{"cl":"P","code":"PPL","parent":1267701},"langs":[{"link":"http://en.wikipedia.org/wiki/Tiptur"}],"name":"Tiptur","stat":{"level":1.0,"population":60957},"zoom":9},{"id":1254432,"coord":{"lon":95.366669,"lat":27.5},"country":"IN","geoname":{"cl":"P","code":"PPL","parent":1278253},"langs":[{"link":"http://en.wikipedia.org/wiki/Tinsukia"}],"name":"Tinsukia","stat":{"level":1.0,"population":89373},"zoom":6},{"id":1254436,"coord":{"lon":80.026108,"lat":13.11139},"country":"IN","geoname":{"cl":"P","code":"PPL","parent":1255053},"langs":[{"link":"http://en.wikipedia.org/wiki/Thiruninravur"}],"name":"Tinnanur","stat":{"level":1.0,"population":22125},"stations":[{"id":7834,"dist":21,"kf":1}],"zoom":12},{"id":1254444,"coord":{"lon":79.650002,"lat":12.25},"country":"IN","geoname":{"cl":"P","code":"PPL","parent":1255053},"langs":[{"en":"Tindivanam"},{"link":"http://en.wikipedia.org/wiki/Tindivanam"},{"pt":"Tindivanam"}],"name":"Tindivanam","stat":{"level":1.0,"population":69839},"zoom":8},{"id":1254481,"coord":{"lon":79.73333,"lat":27.98333},"country":"IN","geoname":{"cl":"P","code":"PPL","parent":1253626},"langs":[{"link":"http://en.wikipedia.org/wiki/Tilhar"}],"name":"Tilhar","stat":{"level":1.0,"population":57043},"zoom":10},{"id":1254534,"coord":{"lon":78.833298,"lat":24.745001},"country":"IN","geoname":{"cl":"P","code":"PPL","parent":1253626},"langs":[{"link":"http://en.wikipedia.org/wiki/Tikamgarh"}],"name":"Tikamgarh","stat":{"level":1.0,"population":74724},"zoom":9},{"id":1254538,"coord":{"lon":76.849998,"lat":27.933331},"country":"IN","geoname":{"cl":"P","code":"PPL","parent":1258899},"langs":[{"link":"http://en.wikipedia.org/wiki/Tijara"}],"name":"Tijara","stat":{"level":1.0,"population":21833},"stations":[{"id":7809,"dist":75,"kf":1},{"id":35561,"dist":76,"kf":1}],"zoom":10},{"id":1254570,"coord":{"lon":94.01667,"lat":24.633329},"country":"IN","geoname":{"cl":"P","code":"PPL","parent":1263706},"langs":[{"link":"http://en.wikipedia.org/wiki/Thoubal"}],"name":"Thoubal","stat":{"level":1.0,"population":44493},"stations":[{"id":33740,"dist":47,"kf":1}],"zoom":10},{"id":1254589,"coord":{"lon":79.650002,"lat":10.76667},"country":"IN","geoname":{"cl":"P","code":"PPL","parent":1255053},"name":"Thiruvarur","stat":{"level":1.0,"population":58777},"zoom":11},{"id":1254624,"coord":{"lon":73.216667,"lat":22.799999},"country":"IN","geoname":{"cl":"P","code":"PPL","parent":1270770},"name":"Thasra","stat":{"level":1.0,"population":18337},"stations":[{"id":7758,"dist":67,"kf":1}],"zoom":11},{"id":1254638,"coord":{"lon":71.626671,"lat":24.396111},"country":"IN","geoname":{"cl":"P","code":"PPL","parent":1270770},"langs":[{"link":"http://en.wikipedia.org/wiki/Tharad"}],"name":"Tharad","stat":{"level":1.0,"population":24697},"zoom":9},{"id":1254649,"coord":{"lon":79.150002,"lat":10.8},"country":"IN","geoname":{"cl":"P","code":"PPL","parent":1255053},"name":"Thanjavur","stat":{"level":1.0,"population":219571},"stations":[{"id":7836,"dist":48,"kf":1}],"zoom":9},{"id":1254657,"coord":{"lon":76.816673,"lat":29.98333},"country":"IN","geoname":{"cl":"P","code":"PPL","parent":1270260},"name":"Thanesar","stat":{"level":1.0,"population":138279},"zoom":9},{"id":1254661,"coord":{"lon":72.966667,"lat":19.200001},"country":"IN","geoname":{"cl":"P","code":"PPL","parent":1264418},"name":"Thane","stat":{"level":1.0,"population":1261517},"zoom":11},{"id":1254673,"coord":{"lon":77.416672,"lat":29.58639},"country":"IN","geoname":{"cl":"P","code":"PPL","parent":1253626},"langs":[{"link":"http://en.wikipedia.org/wiki/Thana_Bhawan"}],"name":"Thana Bhawan","stat":{"level":1.0,"population":33498},"zoom":11},{"id":1254675,"coord":{"lon":71.183327,"lat":22.566669},"country":"IN","geoname":{"cl":"P","code":"PPL","parent":1270770},"langs":[{"link":"http://en.wikipedia.org/wiki/Thangadh"}],"name":"Than","stat":{"level":1.0,"population":42508},"stations":[{"id":34351,"dist":52,"kf":1}],"zoom":9},{"id":1254694,"coord":{"lon":88.133331,"lat":26.450001},"country":"IN","geoname":{"cl":"P","code":"PPL","parent":1275715},"langs":[{"link":"http://en.wikipedia.org/wiki/Thakurganj"}],"name":"Thakurganj","stat":{"level":1.0,"population":15953},"zoom":11},{"id":1254695,"coord":{"lon":78.849998,"lat":29.200001},"country":"IN","geoname":{"cl":"P","code":"PPL","parent":1253626},"langs":[{"link":"http://en.wikipedia.org/wiki/Thakurdwara"}],"name":"Thakurdwara","stat":{"level":1.0,"population":39860},"zoom":11},{"id":1254710,"coord":{"lon":92.800003,"lat":26.633329},"country":"IN","geoname":{"cl":"P","code":"PPL","parent":1278253},"name":"Tezpur","stat":{"level":1.0,"population":58851},"zoom":9},{"id":1254727,"coord":{"lon":75.050003,"lat":16.5},"country":"IN","geoname":{"cl":"P","code":"PPL","parent":1267701},"langs":[{"link":"http://en.wikipedia.org/wiki/Terdal"}],"name":"Terdal","stat":{"level":1.0,"population":26411},"zoom":12},{"id":1254732,"coord":{"lon":81.650002,"lat":24.98333},"country":"IN","geoname":{"cl":"P","code":"PPL","parent":1264542},"langs":[{"link":"http://en.wikipedia.org/wiki/Teonthar"}],"name":"Teonthar","stat":{"level":1.0,"population":16578},"zoom":9},{"id":1254744,"coord":{"lon":77.300003,"lat":8.96667},"country":"IN","geoname":{"cl":"P","code":"PPL","parent":1255053},"langs":[{"link":"http://en.wikipedia.org/wiki/Tenkasi"}],"name":"Thenkasi","stat":{"level":1.0,"population":65496},"stations":[{"id":7837,"dist":69,"kf":1}],"zoom":11},{"id":1254745,"coord":{"lon":77.48333,"lat":10.0},"country":"IN","geoname":{"cl":"P","code":"PPL","parent":1255053},"langs":[{"en":"Theni"},{"ru":"Тхени"}],"name":"Teni","stat":{"level":1.0,"population":1034724},"zoom":5},{"id":1254780,"coord":{"lon":75.533333,"lat":11.75},"country":"IN","geoname":{"cl":"P","code":"PPL","parent":1267254},"name":"Thalassery","stat":{"level":1.0,"population":97201},"stations":[{"id":7828,"dist":85,"kf":1}],"zoom":9},{"id":1254787,"coord":{"lon":76.83889,"lat":21.026939},"country":"IN","geoname":{"cl":"P","code":"PPL","parent":1264418},"langs":[{"link":"http://en.wikipedia.org/wiki/Telhara"}],"name":"Telhara","stat":{"level":1.0,"population":21146},"zoom":10},{"id":1254794,"coord":{"lon":84.23333,"lat":18.616671},"country":"IN","geoname":{"cl":"P","code":"PPL","parent":1278629},"langs":[{"link":"http://en.wikipedia.org/wiki/Tekkali"}],"name":"Tekkali","stat":{"level":1.0,"population":24682},"zoom":10},{"id":1254795,"coord":{"lon":76.883331,"lat":15.53333},"country":"IN","geoname":{"cl":"P","code":"PPL","parent":1267701},"langs":[{"link":"http://en.wikipedia.org/wiki/Tekkalakota"}],"name":"Tekkalakote","stat":{"level":1.0,"population":25530},"zoom":11},{"id":1254797,"coord":{"lon":84.833328,"lat":24.933331},"country":"IN","geoname":{"cl":"P","code":"PPL","parent":1275715},"langs":[{"link":"http://en.wikipedia.org/wiki/Tekari"}],"name":"Tekari","stat":{"level":1.0,"population":19063},"stations":[{"id":7796,"dist":77,"kf":1}],"zoom":10},{"id":1254808,"coord":{"lon":78.48333,"lat":30.383329},"country":"IN","geoname":{"cl":"P","code":"PPL","parent":1444366},"name":"Tehri","stat":{"level":1.0,"population":27611},"zoom":9},{"id":1254813,"coord":{"lon":85.949997,"lat":25.48333},"country":"IN","geoname":{"cl":"P","code":"PPL","parent":1275715},"name":"Teghra","stat":{"level":1.0,"population":46160},"stations":[{"id":7796,"dist":87,"kf":1}],"zoom":13},{"id":1254858,"coord":{"lon":74.599998,"lat":17.033331},"country":"IN","geoname":{"cl":"P","code":"PPL","parent":1264418},"langs":[{"link":"http://en.wikipedia.org/wiki/Tasgaon"}],"name":"Tasgaon","stat":{"level":1.0,"population":34933},"zoom":11},{"id":1254868,"coord":{"lon":74.925278,"lat":31.450001},"country":"IN","geoname":{"cl":"P","code":"PPL","parent":1259223},"langs":[{"en":"Tarn Taran"}],"name":"Tarn Taran","stat":{"level":1.0,"population":58585},"stations":[{"id":7803,"dist":31,"kf":1}],"zoom":10},{"id":1254880,"coord":{"lon":75.816673,"lat":13.71667},"country":"IN","geoname":{"cl":"P","code":"PPL","parent":1267701},"langs":[{"link":"http://en.wikipedia.org/wiki/Tarikere"}],"name":"Tarikere","stat":{"level":1.0,"population":37848},"zoom":10},{"id":1254904,"coord":{"lon":79.852783,"lat":11.03194},"country":"IN","geoname":{"cl":"P","code":"PPL","parent":1255053},"langs":[{"link":"http://en.wikipedia.org/wiki/Tharangambadi"}],"name":"Tharangambadi","stat":{"level":1.0,"population":20841},"zoom":11},{"id":1254908,"coord":{"lon":75.035103,"lat":28.6709},"country":"IN","geoname":{"cl":"P","code":"PPL","parent":1258899},"langs":[{"link":"http://en.wikipedia.org/wiki/Taranagar"}],"name":"Taranagar","stat":{"level":1.0,"population":29392},"zoom":9},{"id":1254909,"coord":{"lon":76.033333,"lat":23.33333},"country":"IN","geoname":{"cl":"P","code":"PPL","parent":1264542},"langs":[{"link":"http://en.wikipedia.org/wiki/Tarana_%28Madhya_Pradesh%29"},{"ru":"Тарана"}],"name":"Tarana","stat":{"level":1.0,"population":22773},"zoom":10},{"id":1254910,"coord":{"lon":77.98333,"lat":11.7},"country":"IN","geoname":{"cl":"P","code":"PPL","parent":1255053},"name":"Taramangalam","stat":{"level":1.0,"population":23788},"zoom":10},{"id":1254912,"coord":{"lon":88.01722,"lat":22.885},"country":"IN","geoname":{"cl":"P","code":"PPL","parent":1252881},"langs":[{"link":"http://en.wikipedia.org/wiki/Tarakeswar"}],"name":"Tarakeswar","stat":{"level":1.0,"population":30475},"stations":[{"id":7784,"dist":51,"kf":1}],"zoom":10},{"id":1254948,"coord":{"lon":76.949997,"lat":28.216669},"country":"IN","geoname":{"cl":"P","code":"PPL","parent":1270260},"langs":[{"link":"http://en.wikipedia.org/wiki/Taoru"}],"name":"Taoru","stat":{"level":1.0,"population":19310},"stations":[{"id":7809,"dist":42,"kf":1},{"id":35561,"dist":44,"kf":1}],"zoom":11},{"id":1254953,"coord":{"lon":81.699997,"lat":16.75},"country":"IN","geoname":{"cl":"P","code":"PPL","parent":1278629},"langs":[{"link":"http://en.wikipedia.org/wiki/Tanuku"}],"name":"Tanuku","stat":{"level":1.0,"population":68290},"zoom":10},{"id":1255004,"coord":{"lon":77.583328,"lat":17.23333},"country":"IN","geoname":{"cl":"P","code":"PPL","parent":1278629},"langs":[{"en":"Tandur"},{"link":"http://en.wikipedia.org/wiki/Tandur"}],"name":"Tandur","stat":{"level":1.0,"population":63239},"stations":[{"id":7830,"dist":90,"kf":1},{"id":7831,"dist":73,"kf":1}],"zoom":8},{"id":1255023,"coord":{"lon":78.933327,"lat":28.98333},"country":"IN","geoname":{"cl":"P","code":"PPL","parent":1253626},"name":"Tanda","stat":{"level":1.0,"population":44822},"zoom":10},{"id":1255024,"coord":{"lon":82.650002,"lat":26.549999},"country":"IN","geoname":{"cl":"P","code":"PPL","parent":1253626},"langs":[{"link":"http://en.wikipedia.org/wiki/Tanda%2C_Ambedkar_Nagar"}],"name":"Tanda","stat":{"level":1.0,"population":88073},"zoom":9},{"id":1255027,"coord":{"lon":80.116669,"lat":29.08333},"country":"IN","geoname":{"cl":"P","code":"PPL","parent":1444366},"langs":[{"link":"http://en.wikipedia.org/wiki/Tanakpur"}],"name":"Tanakpur","stat":{"level":1.0,"population":16905},"zoom":10},{"id":1255046,"coord":{"lon":87.916672,"lat":22.299999},"country":"IN","geoname":{"cl":"P","code":"PPL","parent":1252881},"name":"Tamluk","stat":{"level":1.0,"population":48646},"stations":[{"id":7784,"dist":66,"kf":1}],"zoom":10},{"id":1255076,"coord":{"lon":75.866669,"lat":31.94861},"country":"IN","geoname":{"cl":"P","code":"PPL","parent":1259223},"langs":[{"link":"http://en.wikipedia.org/wiki/Talwara"}],"name":"Talwara","stat":{"level":1.0,"population":24752},"zoom":9},{"id":1255082,"coord":{"lon":74.933327,"lat":30.85},"country":"IN","geoname":{"cl":"P","code":"PPL","parent":1259223},"name":"Talwandi Bhai","stat":{"level":1.0,"population":16391},"stations":[{"id":7133,"dist":89,"kf":1},{"id":7803,"dist":96,"kf":1}],"zoom":11},{"id":1255104,"coord":{"lon":74.216667,"lat":21.566669},"country":"IN","geoname":{"cl":"P","code":"PPL","parent":1264418},"name":"Taloda","stat":{"level":1.0,"population":26293},"zoom":9},{"id":1255121,"coord":{"lon":75.349998,"lat":12.05},"country":"IN","geoname":{"cl":"P","code":"PPL","parent":1267254},"langs":[{"en":"Taliparamba"},{"link":"http://en.wikipedia.org/wiki/Taliparamba"}],"name":"Taliparamba","stat":{"level":1.0,"population":69878},"zoom":11},{"id":1255122,"coord":{"lon":76.316673,"lat":16.48333},"country":"IN","geoname":{"cl":"P","code":"PPL","parent":1267701},"langs":[{"link":"http://en.wikipedia.org/wiki/Talikota"}],"name":"Talikota","stat":{"level":1.0,"population":27902},"zoom":9},{"id":1255131,"coord":{"lon":73.800003,"lat":15.46667},"country":"IN","geoname":{"cl":"P","code":"PPL","parent":1271157},"name":"Taleigao","stat":{"level":1.0,"population":17148},"zoom":13},{"id":1255134,"coord":{"lon":73.683327,"lat":18.716669},"country":"IN","geoname":{"cl":"P","code":"PPL","parent":1264418},"langs":[{"link":"http://en.wikipedia.org/wiki/Talegaon_Dabhade"}],"name":"Talegaon Dabhade","stat":{"level":1.0,"population":47653},"zoom":10},{"id":1255143,"coord":{"lon":85.216667,"lat":20.950001},"country":"IN","geoname":{"cl":"P","code":"PPL","parent":1261029},"langs":[{"link":"http://en.wikipedia.org/wiki/Talcher"}],"name":"Talcher","stat":{"level":1.0,"population":38436},"zoom":11},{"id":1255175,"coord":{"lon":72.050003,"lat":21.35},"country":"IN","geoname":{"cl":"P","code":"PPL","parent":1270770},"langs":[{"link":"http://en.wikipedia.org/wiki/Talaja"}],"name":"Talaja","stat":{"level":1.0,"population":29948},"zoom":9},{"id":1255211,"coord":{"lon":88.921387,"lat":22.586109},"country":"IN","geoname":{"cl":"P","code":"PPL","parent":1252881},"langs":[{"link":"http://en.wikipedia.org/wiki/Taki_%28India%29"},{"ru":"Такой"}],"name":"Taki","stat":{"level":1.0,"population":40113},"stations":[{"id":7784,"dist":48,"kf":1}],"zoom":10},{"id":1255212,"coord":{"lon":81.866669,"lat":22.15},"country":"IN","geoname":{"cl":"P","code":"PPL","parent":1444364},"langs":[{"link":"http://en.wikipedia.org/wiki/Takhatpur"}],"name":"Takhatpur","stat":{"level":1.0,"population":17859},"zoom":10},{"id":1255213,"coord":{"lon":73.0,"lat":25.33333},"country":"IN","geoname":{"cl":"P","code":"PPL","parent":1258899},"langs":[{"link":"http://en.wikipedia.org/wiki/Takhatgarh"}],"name":"Takhatgarh","stat":{"level":1.0,"population":17285},"zoom":10},{"id":1255224,"coord":{"lon":78.48333,"lat":29.16667},"country":"IN","geoname":{"cl":"P","code":"PPL","parent":1253626},"name":"Tajpur","stat":{"level":1.0,"population":17529},"zoom":10},{"id":1255254,"coord":{"lon":78.01667,"lat":14.91667},"country":"IN","geoname":{"cl":"P","code":"PPL","parent":1278629},"langs":[{"en":"Tadpatri"},{"link":"http://en.wikipedia.org/wiki/Tadpatri"}],"name":"Tadpatri","stat":{"level":1.0,"population":93044},"zoom":8},{"id":1255264,"coord":{"lon":81.5,"lat":16.83333},"country":"IN","geoname":{"cl":"P","code":"PPL","parent":1278629},"langs":[{"link":"http://en.wikipedia.org/wiki/Tadepalligudem"}],"name":"Tadepallegudem","stat":{"level":1.0,"population":108167},"zoom":10},{"id":1255265,"coord":{"lon":80.599998,"lat":16.48333},"country":"IN","geoname":{"cl":"P","code":"PPL","parent":1278629},"name":"Tadepalle","stat":{"level":1.0,"population":34357},"zoom":12},{"id":1255344,"coord":{"lon":79.616669,"lat":17.15},"country":"IN","geoname":{"cl":"P","code":"PPL","parent":1278629},"langs":[{"link":"http://en.wikipedia.org/wiki/Suryapet"}],"name":"Suriapet","stat":{"level":1.0,"population":111729},"zoom":9},{"id":1255346,"coord":{"lon":82.416672,"lat":25.466669},"country":"IN","geoname":{"cl":"P","code":"PPL","parent":1253626},"name":"Surianwan","stat":{"level":1.0,"population":19157},"stations":[{"id":7804,"dist":44,"kf":1}],"zoom":11},{"id":1255349,"coord":{"lon":71.683327,"lat":22.700001},"country":"IN","geoname":{"cl":"P","code":"PPL","parent":1270770},"langs":[{"link":"http://en.wikipedia.org/wiki/Wadhwan"}],"name":"Surendranagar","stat":{"level":1.0,"population":179628},"zoom":9},{"id":1255361,"coord":{"lon":73.900002,"lat":29.316669},"country":"IN","geoname":{"cl":"P","code":"PPL","parent":1258899},"langs":[{"en":"Suratgarh"},{"link":"http://en.wikipedia.org/wiki/Suratgarh"},{"pt":"Suratgarh"},{"ru":"Суратгарх"}],"name":"Suratgarh","stat":{"level":1.0,"population":63153},"zoom":7},{"id":1255364,"coord":{"lon":72.833328,"lat":21.16667},"country":"IN","geoname":{"cl":"P","code":"PPL","parent":1270770},"langs":[{"bpy":"সুরাত"},{"de":"Surat"},{"en":"Surat"},{"fi":"Surat"},{"fr":"Surat"},{"gu":"સુરત"},{"id":"Surat"},{"ja":"スーラト"},{"link":"http://en.wikipedia.org/wiki/Surat"},{"lt":"Suratas"},{"mr":"सुरत"},{"nl":"Surat"},{"pl":"Surat"},{"pt":"Surate"},{"ro":"Surat"},{"sr":"Сурат"},{"sv":"Surat"},{"zh":"苏拉特"}],"name":"Surat","stat":{"level":1.0,"population":2894504},"zoom":7},{"id":1255372,"coord":{"lon":77.400002,"lat":8.96667},"country":"IN","geoname":{"cl":"P","code":"PPL","parent":1255053},"langs":[{"link":"http://en.wikipedia.org/wiki/Surandai"}],"name":"Surandai","stat":{"level":1.0,"population":28989},"stations":[{"id":7837,"dist":75,"kf":1}],"zoom":10},{"id":1255383,"coord":{"lon":75.734703,"lat":28.312401},"country":"IN","geoname":{"cl":"P","code":"PPL","parent":1258899},"langs":[{"link":"http://en.wikipedia.org/wiki/Surajgarh"}],"name":"Surajgarh","stat":{"level":1.0,"population":19721},"zoom":11},{"id":1255396,"coord":{"lon":86.599998,"lat":26.116671},"country":"IN","geoname":{"cl":"P","code":"PPL","parent":1275715},"langs":[{"link":"http://en.wikipedia.org/wiki/Supaul_%28Vidhan_Sabha_constituency%29"}],"name":"Supaul","stat":{"level":1.0,"population":60020},"zoom":10},{"id":1255425,"coord":{"lon":75.966667,"lat":24.366671},"country":"IN","geoname":{"cl":"P","code":"PPL","parent":1258899},"name":"Sunel","stat":{"level":1.0,"population":15840},"zoom":10},{"id":1255434,"coord":{"lon":76.883331,"lat":31.533331},"country":"IN","geoname":{"cl":"P","code":"PPL","parent":1270101},"langs":[{"link":"http://en.wikipedia.org/wiki/Sundar_Nagar"}],"name":"Sundarnagar","stat":{"level":1.0,"population":25338},"zoom":10},{"id":1255437,"coord":{"lon":84.033333,"lat":22.116671},"country":"IN","geoname":{"cl":"P","code":"PPL","parent":1261029},"name":"Sundargarh","stat":{"level":1.0,"population":41705},"zoom":9},{"id":1255449,"coord":{"lon":75.800003,"lat":30.133329},"country":"IN","geoname":{"cl":"P","code":"PPL","parent":1259223},"langs":[{"link":"http://en.wikipedia.org/wiki/Sunam"}],"name":"Sunam","stat":{"level":1.0,"population":53647},"zoom":11},{"id":1255482,"coord":{"lon":75.383331,"lat":12.56667},"country":"IN","geoname":{"cl":"P","code":"PPL","parent":1267701},"langs":[{"link":"http://en.wikipedia.org/wiki/Sullia"}],"name":"Sulya","stat":{"level":1.0,"population":18950},"zoom":9},{"id":1255483,"coord":{"lon":80.01667,"lat":13.7},"country":"IN","geoname":{"cl":"P","code":"PPL","parent":1278629},"name":"Suluru","stat":{"level":1.0,"population":38065},"stations":[{"id":7834,"dist":80,"kf":1}],"zoom":9},{"id":1255484,"coord":{"lon":77.133331,"lat":11.03333},"country":"IN","geoname":{"cl":"P","code":"PPL","parent":1255053},"langs":[{"link":"http://en.wikipedia.org/wiki/Sulur"}],"name":"Sulur","stat":{"level":1.0,"population":26183},"stations":[{"id":7825,"dist":9,"kf":1}],"zoom":11},{"id":1255488,"coord":{"lon":75.199722,"lat":31.215281},"country":"IN","geoname":{"cl":"P","code":"PPL","parent":1259223},"name":"Sultanpur","stat":{"level":1.0,"population":16344},"stations":[{"id":7133,"dist":82,"kf":1},{"id":7803,"dist":66,"kf":1}],"zoom":10},{"id":1255491,"coord":{"lon":82.066673,"lat":26.26667},"country":"IN","geoname":{"cl":"P","code":"PPL","parent":1253626},"name":"Sultanpur","stat":{"level":1.0,"population":110368},"stations":[{"id":30125,"dist":46,"kf":1}],"zoom":9},{"id":1255551,"coord":{"lon":76.033333,"lat":24.65},"country":"IN","geoname":{"cl":"P","code":"PPL","parent":1258899},"langs":[{"link":"http://en.wikipedia.org/wiki/Suket"}],"name":"Suket","stat":{"level":1.0,"population":19851},"zoom":11},{"id":1255597,"coord":{"lon":79.050003,"lat":29.033331},"country":"IN","geoname":{"cl":"P","code":"PPL","parent":1253626},"langs":[{"link":"http://en.wikipedia.org/wiki/Suar%2C_Uttar_Pradesh"},{"ru":"Суар"}],"name":"Suar","stat":{"level":1.0,"population":28941},"zoom":10},{"id":1255616,"coord":{"lon":77.633331,"lat":9.51667},"country":"IN","geoname":{"cl":"P","code":"PPL","parent":1255053},"name":"Srivilliputhur","stat":{"level":1.0,"population":74370},"zoom":11},{"id":1255619,"coord":{"lon":73.01667,"lat":18.033331},"country":"IN","geoname":{"cl":"P","code":"PPL","parent":1264418},"name":"Srivardhan","stat":{"level":1.0,"population":15279},"zoom":9},{"id":1255620,"coord":{"lon":77.933327,"lat":8.61667},"country":"IN","geoname":{"cl":"P","code":"PPL","parent":1255053},"langs":[{"link":"http://en.wikipedia.org/wiki/Srivaikuntam"}],"name":"Srivaikuntam","stat":{"level":1.0,"population":15665},"zoom":10},{"id":1255621,"coord":{"lon":78.866669,"lat":16.08333},"country":"IN","geoname":{"cl":"P","code":"PPL","parent":1278629},"langs":[{"link":"http://en.wikipedia.org/wiki/Srisailam"}],"name":"Srisailam","stat":{"level":1.0,"population":24142},"zoom":9},{"id":1255625,"coord":{"lon":78.25544,"lat":17.26652},"country":"IN","geoname":{"cl":"P","code":"PPL","parent":1278629},"name":"Sriramnagar","stat":{"level":1.0,"population":19550},"stations":[{"id":7830,"dist":18,"kf":1},{"id":7831,"dist":1,"kf":1}],"zoom":10},{"id":1255630,"coord":{"lon":79.948891,"lat":12.96889},"country":"IN","geoname":{"cl":"P","code":"PPL","parent":1255053},"langs":[{"link":"http://en.wikipedia.org/wiki/Sriperumbudur"}],"name":"Sriperumbudur","stat":{"level":1.0,"population":17253},"stations":[{"id":7834,"dist":25,"kf":1}],"zoom":10},{"id":1255631,"coord":{"lon":78.216667,"lat":13.33333},"country":"IN","geoname":{"cl":"P","code":"PPL","parent":1267701},"langs":[{"link":"http://en.wikipedia.org/wiki/Srinivaspur"}],"name":"Srinivaspur","stat":{"level":1.0,"population":25760},"stations":[{"id":7823,"dist":57,"kf":1}],"zoom":9},{"id":1255634,"coord":{"lon":74.816673,"lat":34.083328},"country":"IN","geoname":{"cl":"P","code":"PPLA","parent":1269320},"langs":[{"bn":"শ্রীনগর"},{"de":"Srinagar"},{"en":"Srinagar"},{"fa":"سرینگار"},{"fr":"Srinagar"},{"he":"סרינגאר"},{"hi":"श्रीनगर"},{"id":"Srinagar"},{"it":"Srinagar"},{"ja":"スリナガル"},{"link":"http://en.wikipedia.org/wiki/Srinagar"},{"nl":"Srinagar"},{"pt":"Srinagar"},{"ro":"Srinagar"},{"ru":"Шринагар"},{"sv":"Srinagar"},{"zh":"斯利那加"}],"name":"Srinagar","stat":{"level":1.0,"population":975857},"zoom":7},{"id":1255635,"coord":{"lon":78.783333,"lat":30.216669},"country":"IN","geoname":{"cl":"P","code":"PPL","parent":1444366},"langs":[{"link":"http://en.wikipedia.org/wiki/Srinagar%2C_Uttarakhand"},{"ru":"Шринагар"}],"name":"Srinagar","stat":{"level":1.0,"population":20216},"zoom":12},{"id":1255643,"coord":{"lon":75.599998,"lat":27.466669},"country":"IN","geoname":{"cl":"P","code":"PPL","parent":1258899},"langs":[{"link":"http://en.wikipedia.org/wiki/Sri_Madhopur"}],"name":"Sri Madhopur","stat":{"level":1.0,"population":30281},"stations":[{"id":7814,"dist":75,"kf":1}],"zoom":8},{"id":1255646,"coord":{"lon":73.45417,"lat":29.84194},"country":"IN","geoname":{"cl":"P","code":"PPL","parent":1258899},"langs":[{"link":"http://en.wikipedia.org/wiki/Karanpur"}],"name":"Karanpur","stat":{"level":1.0,"population":21604},"zoom":10},{"id":1255647,"coord":{"lon":83.900002,"lat":18.299999},"country":"IN","geoname":{"cl":"P","code":"PPL","parent":1278629},"name":"Srikakulam","stat":{"level":1.0,"population":118299},"zoom":8},{"id":1255654,"coord":{"lon":74.01667,"lat":28.08333},"country":"IN","geoname":{"cl":"P","code":"PPL","parent":1258899},"name":"Sri Dungargarh","stat":{"level":1.0,"population":48036},"zoom":9},{"id":1255667,"coord":{"lon":75.616669,"lat":20.6},"country":"IN","geoname":{"cl":"P","code":"PPL","parent":1264418},"name":"Soygaon","stat":{"level":1.0,"population":23320},"zoom":10},{"id":1255704,"coord":{"lon":78.75,"lat":27.883329},"country":"IN","geoname":{"cl":"P","code":"PPL","parent":1253626},"langs":[{"link":"http://en.wikipedia.org/wiki/Soron"},{"ru":"Сорон"}],"name":"Soron","stat":{"level":1.0,"population":28683},"zoom":11},{"id":1255705,"coord":{"lon":86.685829,"lat":21.288059},"country":"IN","geoname":{"cl":"P","code":"PPL","parent":1261029},"langs":[{"link":"http://en.wikipedia.org/wiki/Soro%2C_Baleshwar"}],"name":"Soro","stat":{"level":1.0,"population":29797},"zoom":10},{"id":1255712,"coord":{"lon":84.433327,"lat":19.75},"country":"IN","geoname":{"cl":"P","code":"PPL","parent":1261029},"langs":[{"link":"http://en.wikipedia.org/wiki/Surada"}],"name":"Sorada","stat":{"level":1.0,"population":15117},"zoom":10},{"id":1255714,"coord":{"lon":74.466667,"lat":34.299999},"country":"IN","geoname":{"cl":"P","code":"PPL","parent":1269320},"langs":[{"link":"http://en.wikipedia.org/wiki/Sopore"}],"name":"Sopur","stat":{"level":1.0,"population":63035},"stations":[{"id":5612,"dist":92,"kf":1}],"zoom":9},{"id":1255744,"coord":{"lon":77.01667,"lat":28.98333},"country":"IN","geoname":{"cl":"P","code":"PPL","parent":1270260},"langs":[{"link":"http://en.wikipedia.org/wiki/Sonipat"}],"name":"Sonipat","stat":{"level":1.0,"population":250521},"stations":[{"id":7809,"dist":46,"kf":1}],"zoom":9},{"id":1255762,"coord":{"lon":73.566673,"lat":21.16667},"country":"IN","geoname":{"cl":"P","code":"PPL","parent":1270770},"langs":[{"link":"http://en.wikipedia.org/wiki/Songadh"}],"name":"Songadh","stat":{"level":1.0,"population":25269},"zoom":8},{"id":1255763,"coord":{"lon":83.916672,"lat":20.83333},"country":"IN","geoname":{"cl":"P","code":"PPL","parent":1261029},"name":"Sonepur","stat":{"level":1.0,"population":18768},"zoom":9},{"id":1255788,"coord":{"lon":95.033333,"lat":27.066669},"country":"IN","geoname":{"cl":"P","code":"PPL","parent":1278253},"langs":[{"link":"http://en.wikipedia.org/wiki/Sonari"}],"name":"Sonari","stat":{"level":1.0,"population":19672},"zoom":9},{"id":1255792,"coord":{"lon":87.416672,"lat":23.299999},"country":"IN","geoname":{"cl":"P","code":"PPL","parent":1252881},"langs":[{"link":"http://en.wikipedia.org/wiki/Sonamukhi"}],"name":"Sonamukhi","stat":{"level":1.0,"population":28334},"zoom":9},{"id":1255816,"coord":{"lon":84.599998,"lat":18.933331},"country":"IN","geoname":{"cl":"P","code":"PPL","parent":1278629},"langs":[{"link":"http://en.wikipedia.org/wiki/Sompeta"}],"name":"Sompeta","stat":{"level":1.0,"population":17982},"zoom":8},{"id":1255823,"coord":{"lon":75.066673,"lat":13.5},"country":"IN","geoname":{"cl":"P","code":"PPL","parent":1267701},"langs":[{"link":"http://en.wikipedia.org/wiki/Someshwar"}],"name":"Someshwar","stat":{"level":1.0,"population":22137},"zoom":9},{"id":1255850,"coord":{"lon":77.116669,"lat":30.91667},"country":"IN","geoname":{"cl":"P","code":"PPL","parent":1270101},"langs":[{"link":"http://en.wikipedia.org/wiki/Solan"},{"ru":"Солана"}],"name":"Solan","stat":{"level":1.0,"population":40283},"zoom":10},{"id":1255858,"coord":{"lon":72.716667,"lat":22.549999},"country":"IN","geoname":{"cl":"P","code":"PPL","parent":1270770},"langs":[{"link":"http://en.wikipedia.org/wiki/Sojitra"}],"name":"Sojitra","stat":{"level":1.0,"population":19403},"stations":[{"id":7758,"dist":59,"kf":1}],"zoom":10},{"id":1255860,"coord":{"lon":73.666672,"lat":25.91667},"country":"IN","geoname":{"cl":"P","code":"PPL","parent":1258899},"langs":[{"link":"http://en.wikipedia.org/wiki/Sojat"}],"name":"Sojat","stat":{"level":1.0,"population":42556},"zoom":9},{"id":1255870,"coord":{"lon":77.066673,"lat":28.25},"country":"IN","geoname":{"cl":"P","code":"PPL","parent":1270260},"langs":[{"link":"http://en.wikipedia.org/wiki/Sohna"}],"name":"Sohna","stat":{"level":1.0,"population":33361},"stations":[{"id":7809,"dist":35,"kf":1},{"id":35561,"dist":35,"kf":1}],"zoom":10},{"id":1255884,"coord":{"lon":78.199997,"lat":22.700001},"country":"IN","geoname":{"cl":"P","code":"PPL","parent":1264542},"langs":[{"link":"http://en.wikipedia.org/wiki/Sohagpur"}],"name":"Sohagpur","stat":{"level":1.0,"population":23849},"zoom":8},{"id":1255925,"coord":{"lon":72.416672,"lat":25.633329},"country":"IN","geoname":{"cl":"P","code":"PPL","parent":1258899},"langs":[{"link":"http://en.wikipedia.org/wiki/Siwana"}],"name":"Siwana","stat":{"level":1.0,"population":22067},"zoom":10},{"id":1255927,"coord":{"lon":84.366669,"lat":26.216669},"country":"IN","geoname":{"cl":"P","code":"PPL","parent":1275715},"langs":[{"link":"http://en.wikipedia.org/wiki/Siwan_%28Vidhan_Sabha_constituency%29"},{"ru":"Сиван"}],"name":"Siwan","stat":{"level":1.0,"population":119181},"zoom":8},{"id":1255947,"coord":{"lon":77.816673,"lat":9.45},"country":"IN","geoname":{"cl":"P","code":"PPL","parent":1255053},"langs":[{"link":"http://en.wikipedia.org/wiki/Sivakasi"}],"name":"Sivakasi","stat":{"level":1.0,"population":74282},"zoom":10},{"id":1255950,"coord":{"lon":77.800003,"lat":11.11667},"country":"IN","geoname":{"cl":"P","code":"PPL","parent":1255053},"langs":[{"link":"http://en.wikipedia.org/wiki/Sivagiri%2C_Erode"}],"name":"Sivagiri","stat":{"level":1.0,"population":16779},"stations":[{"id":7825,"dist":83,"kf":1}],"zoom":10},{"id":1255951,"coord":{"lon":77.433327,"lat":9.33333},"country":"IN","geoname":{"cl":"P","code":"PPL","parent":1255053},"langs":[{"link":"http://en.wikipedia.org/wiki/Sivagiri%2C_Tirunelveli"}],"name":"Sivagiri","stat":{"level":1.0,"population":20772},"zoom":11},{"id":1255953,"coord":{"lon":78.48333,"lat":9.86667},"country":"IN","geoname":{"cl":"P","code":"PPL","parent":1255053},"name":"Sivaganga","stat":{"level":1.0,"population":42785},"zoom":7},{"id":1255955,"coord":{"lon":87.533333,"lat":23.91667},"country":"IN","geoname":{"cl":"P","code":"PPL","parent":1252881},"name":"Siuri","stat":{"level":1.0,"population":64659},"zoom":9},{"id":1255963,"coord":{"lon":79.699997,"lat":28.933331},"country":"IN","geoname":{"cl":"P","code":"PPL","parent":1444366},"langs":[{"link":"http://en.wikipedia.org/wiki/Sitarganj"}],"name":"Sitarganj","stat":{"level":1.0,"population":24225},"zoom":10},{"id":1255969,"coord":{"lon":80.683327,"lat":27.566669},"country":"IN","geoname":{"cl":"P","code":"PPL","parent":1253626},"name":"Sitapur","stat":{"level":1.0,"population":164435},"stations":[{"id":7817,"dist":92,"kf":1}],"zoom":8},{"id":1255983,"coord":{"lon":85.48333,"lat":26.6},"country":"IN","geoname":{"cl":"P","code":"PPL","parent":1275715},"langs":[{"link":"http://en.wikipedia.org/wiki/Sitamarhi"}],"name":"Sitamarhi","stat":{"level":1.0,"population":57095},"zoom":9},{"id":1255995,"coord":{"lon":83.76667,"lat":27.15},"country":"IN","geoname":{"cl":"P","code":"PPL","parent":1253626},"name":"Siswa Bazar","stat":{"level":1.0,"population":19939},"zoom":10},{"id":1256003,"coord":{"lon":77.466667,"lat":29.41667},"country":"IN","geoname":{"cl":"P","code":"PPL","parent":1253626},"langs":[{"link":"http://en.wikipedia.org/wiki/Sisauli"}],"name":"Sisauli","stat":{"level":1.0,"population":15837},"zoom":11},{"id":1256025,"coord":{"lon":74.383331,"lat":18.83333},"country":"IN","geoname":{"cl":"P","code":"PPL","parent":1264418},"name":"Sirur","stat":{"level":1.0,"population":31018},"zoom":9},{"id":1256027,"coord":{"lon":77.01667,"lat":11.33333},"country":"IN","geoname":{"cl":"P","code":"PPL","parent":1255053},"langs":[{"link":"http://en.wikipedia.org/wiki/Sirumugai"}],"name":"Sirumugai","stat":{"level":1.0,"population":20066},"stations":[{"id":7825,"dist":33,"kf":1}],"zoom":11},{"id":1256029,"coord":{"lon":76.900002,"lat":15.63333},"country":"IN","geoname":{"cl":"P","code":"PPL","parent":1267701},"langs":[{"link":"http://en.wikipedia.org/wiki/Siraguppa"}],"name":"Siruguppa","stat":{"level":1.0,"population":47917},"zoom":10},{"id":1256039,"coord":{"lon":78.833328,"lat":18.383329},"country":"IN","geoname":{"cl":"P","code":"PPL","parent":1278629},"langs":[{"en":"Sirsilla"},{"link":"http://en.wikipedia.org/wiki/Sircilla"}],"name":"Sirsilla","stat":{"level":1.0,"population":71499},"zoom":8},{"id":1256040,"coord":{"lon":78.650002,"lat":28.65},"country":"IN","geoname":{"cl":"P","code":"PPL","parent":1253626},"langs":[{"link":"http://en.wikipedia.org/wiki/Sirsi%2C_Uttar_Pradesh"}],"name":"Sirsi","stat":{"level":1.0,"population":22549},"zoom":11},{"id":1256047,"coord":{"lon":74.849998,"lat":14.61667},"country":"IN","geoname":{"cl":"P","code":"PPL","parent":1267701},"langs":[{"link":"http://en.wikipedia.org/wiki/Sirsi%2C_Karnataka"}],"name":"Sirsi","stat":{"level":1.0,"population":61607},"zoom":9},{"id":1256050,"coord":{"lon":78.699997,"lat":27.049999},"country":"IN","geoname":{"cl":"P","code":"PPL","parent":1253626},"langs":[{"link":"http://en.wikipedia.org/wiki/Sirsaganj"}],"name":"Sirsaganj","stat":{"level":1.0,"population":29034},"zoom":11},{"id":1256052,"coord":{"lon":75.01667,"lat":29.533331},"country":"IN","geoname":{"cl":"P","code":"PPL","parent":1270260},"langs":[{"link":"http://en.wikipedia.org/wiki/Sirsa%2C_Haryana"}],"name":"Sirsa","stat":{"level":1.0,"population":181639},"zoom":8},{"id":1256064,"coord":{"lon":77.699997,"lat":24.1},"country":"IN","geoname":{"cl":"P","code":"PPL","parent":1264542},"langs":[{"link":"http://en.wikipedia.org/wiki/Sironj"}],"name":"Sironj","stat":{"level":1.0,"population":45455},"zoom":9},{"id":1256067,"coord":{"lon":72.866669,"lat":24.883329},"country":"IN","geoname":{"cl":"P","code":"PPL","parent":1258899},"langs":[{"link":"http://en.wikipedia.org/wiki/Sirohi"}],"name":"Sirohi","stat":{"level":1.0,"population":38610},"zoom":9},{"id":1256075,"coord":{"lon":79.73333,"lat":11.23333},"country":"IN","geoname":{"cl":"P","code":"PPL","parent":1255053},"langs":[{"link":"http://en.wikipedia.org/wiki/Sirkazhi"}],"name":"Sirkazhi","stat":{"level":1.0,"population":33100},"zoom":10},{"id":1256087,"coord":{"lon":76.3825,"lat":30.645559},"country":"IN","geoname":{"cl":"P","code":"PPL","parent":1259223},"langs":[{"link":"http://en.wikipedia.org/wiki/Sirhind-Fategarh"}],"name":"Sirhind","stat":{"level":1.0,"population":60847},"zoom":9},{"id":1256104,"coord":{"lon":76.909172,"lat":13.74528},"country":"IN","geoname":{"cl":"P","code":"PPL","parent":1267701},"name":"Sira","stat":{"level":1.0,"population":57928},"zoom":9},{"id":1256119,"coord":{"lon":74.0,"lat":19.85},"country":"IN","geoname":{"cl":"P","code":"PPL","parent":1264418},"langs":[{"link":"http://en.wikipedia.org/wiki/Sinnar"},{"ru":"Синнар"}],"name":"Sinnar","stat":{"level":1.0,"population":34095},"zoom":10},{"id":1256124,"coord":{"lon":88.229439,"lat":22.80917},"country":"IN","geoname":{"cl":"P","code":"PPL","parent":1252881},"langs":[{"link":"http://en.wikipedia.org/wiki/Singur"}],"name":"Singur","stat":{"level":1.0,"population":19402},"stations":[{"id":7784,"dist":28,"kf":1}],"zoom":11},{"id":1256176,"coord":{"lon":80.033333,"lat":15.25},"country":"IN","geoname":{"cl":"P","code":"PPL","parent":1278629},"langs":[{"link":"http://en.wikipedia.org/wiki/Singarayakonda"}],"name":"Singarayakonda","stat":{"level":1.0,"population":17796},"zoom":11},{"id":1256184,"coord":{"lon":77.01667,"lat":11.0},"country":"IN","geoname":{"cl":"P","code":"PPL","parent":1255053},"name":"Singanallur","stat":{"level":1.0,"population":31239},"stations":[{"id":7825,"dist":3,"kf":1}],"zoom":12},{"id":1256207,"coord":{"lon":76.76667,"lat":15.78333},"country":"IN","geoname":{"cl":"P","code":"PPL","parent":1267701},"name":"Sindhnur","stat":{"level":1.0,"population":68793},"zoom":9},{"id":1256214,"coord":{"lon":76.23333,"lat":16.91667},"country":"IN","geoname":{"cl":"P","code":"PPL","parent":1267701},"langs":[{"link":"http://en.wikipedia.org/wiki/Sindagi"}],"name":"Sindgi","stat":{"level":1.0,"population":33770},"zoom":9},{"id":1256237,"coord":{"lon":77.166672,"lat":31.1},"country":"IN","geoname":{"cl":"P","code":"PPLA","parent":1270101},"name":"Shimla","stat":{"level":1.0,"population":173503},"zoom":9},{"id":1256246,"coord":{"lon":84.51667,"lat":22.616671},"country":"IN","geoname":{"cl":"P","code":"PPL","parent":1444365},"langs":[{"link":"http://en.wikipedia.org/wiki/Simdega"}],"name":"Simdega","stat":{"level":1.0,"population":38732},"zoom":8},{"id":1256259,"coord":{"lon":73.01667,"lat":20.26667},"country":"IN","geoname":{"cl":"P","code":"PPLA","parent":1273726},"name":"Silvassa","stat":{"level":1.0,"population":27359},"zoom":14},{"id":1256269,"coord":{"lon":75.650002,"lat":20.299999},"country":"IN","geoname":{"cl":"P","code":"PPL","parent":1264418},"langs":[{"link":"http://en.wikipedia.org/wiki/Sillod"}],"name":"Sillod","stat":{"level":1.0,"population":51042},"zoom":9},{"id":1256287,"coord":{"lon":92.800003,"lat":24.816669},"country":"IN","geoname":{"cl":"P","code":"PPL","parent":1278253},"langs":[{"en":"Silchar"},{"link":"http://en.wikipedia.org/wiki/Silchar"},{"ru":"Силчар"}],"name":"Silchar","stat":{"level":1.0,"population":152393},"zoom":8},{"id":1256295,"coord":{"lon":85.416672,"lat":25.08333},"country":"IN","geoname":{"cl":"P","code":"PPL","parent":1275715},"langs":[{"link":"http://en.wikipedia.org/wiki/Silao_Nalanda"},{"ru":"Силао"}],"name":"Silao","stat":{"level":1.0,"population":21828},"stations":[{"id":7796,"dist":65,"kf":1}],"zoom":12},{"id":1256320,"coord":{"lon":75.150002,"lat":27.616671},"country":"IN","geoname":{"cl":"P","code":"PPL","parent":1258899},"langs":[{"link":"http://en.wikipedia.org/wiki/Sikar"}],"name":"Sikar","stat":{"level":1.0,"population":199932},"zoom":5},{"id":1256322,"coord":{"lon":78.400002,"lat":27.700001},"country":"IN","geoname":{"cl":"P","code":"PPL","parent":1253626},"langs":[{"link":"http://en.wikipedia.org/wiki/Sikandra_Rao"}],"name":"Sikandra Rao","stat":{"level":1.0,"population":42229},"zoom":10},{"id":1256328,"coord":{"lon":84.050003,"lat":26.049999},"country":"IN","geoname":{"cl":"P","code":"PPL","parent":1253626},"name":"Sikandarpur","stat":{"level":1.0,"population":24177},"zoom":9},{"id":1256329,"coord":{"lon":77.699997,"lat":28.450001},"country":"IN","geoname":{"cl":"P","code":"PPL","parent":1253626},"langs":[{"en":"Sikandrabad"},{"link":"http://en.wikipedia.org/wiki/Sikandrabad"},{"pt":"Sikandrabad"}],"name":"Sikandarabad","stat":{"level":1.0,"population":73379},"stations":[{"id":35561,"dist":45,"kf":1}],"zoom":11},{"id":1256333,"coord":{"lon":69.833328,"lat":22.433331},"country":"IN","geoname":{"cl":"P","code":"PPL","parent":1270770},"name":"Sikka","stat":{"level":1.0,"population":19404},"stations":[{"id":34351,"dist":97,"kf":1}],"zoom":10},{"id":1256335,"coord":{"lon":86.316673,"lat":23.783331},"country":"IN","geoname":{"cl":"P","code":"PPL","parent":1444365},"langs":[{"link":"http://en.wikipedia.org/wiki/Sijua"}],"name":"Sijua","stat":{"level":1.0,"population":31537},"zoom":12},{"id":1256340,"coord":{"lon":80.116669,"lat":23.48333},"country":"IN","geoname":{"cl":"P","code":"PPL","parent":1264542},"langs":[{"link":"http://en.wikipedia.org/wiki/Sihora"}],"name":"Sihora","stat":{"level":1.0,"population":41192},"zoom":9},{"id":1256343,"coord":{"lon":71.966667,"lat":21.700001},"country":"IN","geoname":{"cl":"P","code":"PPL","parent":1270770},"langs":[{"link":"http://en.wikipedia.org/wiki/Sihor"}],"name":"Sihor","stat":{"level":1.0,"population":52603},"zoom":10},{"id":1256363,"coord":{"lon":77.862778,"lat":13.38806},"country":"IN","geoname":{"cl":"P","code":"PPL","parent":1267701},"langs":[{"link":"http://en.wikipedia.org/wiki/Sidlaghatta"}],"name":"Sidlaghatta","stat":{"level":1.0,"population":49114},"stations":[{"id":7823,"dist":26,"kf":1}],"zoom":11},{"id":1256369,"coord":{"lon":81.883331,"lat":24.41667},"country":"IN","geoname":{"cl":"P","code":"PPL","parent":1264542},"langs":[{"link":"http://en.wikipedia.org/wiki/Sidhi"},{"ru":"Сидхи"}],"name":"Sidhi","stat":{"level":1.0,"population":54242},"zoom":8},{"id":1256372,"coord":{"lon":80.833328,"lat":27.283331},"country":"IN","geoname":{"cl":"P","code":"PPL","parent":1253626},"langs":[{"link":"http://en.wikipedia.org/wiki/Sidhauli"}],"name":"Sidhauli","stat":{"level":1.0,"population":22193},"stations":[{"id":7817,"dist":58,"kf":1}],"zoom":10},{"id":1256377,"coord":{"lon":78.849998,"lat":18.1},"country":"IN","geoname":{"cl":"P","code":"PPL","parent":1278629},"langs":[{"en":"Siddipet"},{"link":"http://en.wikipedia.org/wiki/Siddipet"}],"name":"Siddipet","stat":{"level":1.0,"population":64562},"zoom":9},{"id":1256382,"coord":{"lon":72.383331,"lat":23.91667},"country":"IN","geoname":{"cl":"P","code":"PPL","parent":1270770},"name":"Siddhapur","stat":{"level":1.0,"population":54313},"stations":[{"id":7758,"dist":96,"kf":1}],"zoom":11},{"id":1256388,"coord":{"lon":94.633331,"lat":26.98333},"country":"IN","geoname":{"cl":"P","code":"PPL","parent":1278253},"name":"Sibsagar","stat":{"level":1.0,"population":62104},"zoom":9},{"id":1256418,"coord":{"lon":76.716667,"lat":23.4},"country":"IN","geoname":{"cl":"P","code":"PPL","parent":1264542},"langs":[{"link":"http://en.wikipedia.org/wiki/Shujalpur"}],"name":"Shujalpur","stat":{"level":1.0,"population":47058},"zoom":8},{"id":1256421,"coord":{"lon":76.70417,"lat":12.41361},"country":"IN","geoname":{"cl":"P","code":"PPL","parent":1267701},"name":"Shrirangapattana","stat":{"level":1.0,"population":23927},"zoom":11},{"id":1256422,"coord":{"lon":88.342216,"lat":22.752781},"country":"IN","geoname":{"cl":"P","code":"PPL","parent":1252881},"langs":[{"da":"Serampore"},{"en":"Serampore"},{"link":"http://en.wikipedia.org/wiki/Serampore"},{"sv":"Serampore"}],"name":"Shrirampur","stat":{"level":1.0,"population":226317},"stations":[{"id":7784,"dist":15,"kf":1}],"zoom":11},{"id":1256426,"coord":{"lon":74.683327,"lat":18.616671},"country":"IN","geoname":{"cl":"P","code":"PPL","parent":1264418},"langs":[{"link":"http://en.wikipedia.org/wiki/Shrigonda"}],"name":"Shrigonda","stat":{"level":1.0,"population":28208},"zoom":10},{"id":1256431,"coord":{"lon":76.75,"lat":16.51667},"country":"IN","geoname":{"cl":"P","code":"PPL","parent":1267701},"langs":[{"link":"http://en.wikipedia.org/wiki/Shorapur"}],"name":"Shorapur","stat":{"level":1.0,"population":49501},"zoom":8},{"id":1256432,"coord":{"lon":76.283333,"lat":10.76667},"country":"IN","geoname":{"cl":"P","code":"PPL","parent":1267254},"langs":[{"link":"http://en.wikipedia.org/wiki/Shoranur"}],"name":"Shoranur","stat":{"level":1.0,"population":42694},"stations":[{"id":7825,"dist":87,"kf":1},{"id":7828,"dist":53,"kf":1}],"zoom":11},{"id":1256435,"coord":{"lon":79.416672,"lat":13.11667},"country":"IN","geoname":{"cl":"P","code":"PPL","parent":1255053},"langs":[{"link":"http://en.wikipedia.org/wiki/Sholinghur"}],"name":"Sholinghur","stat":{"level":1.0,"population":28645},"stations":[{"id":7834,"dist":83,"kf":1}],"zoom":10},{"id":1256436,"coord":{"lon":75.916672,"lat":17.683331},"country":"IN","geoname":{"cl":"P","code":"PPL","parent":1264418},"name":"Solapur","stat":{"level":1.0,"population":997281},"zoom":7},{"id":1256451,"coord":{"lon":77.650002,"lat":25.433331},"country":"IN","geoname":{"cl":"P","code":"PPL","parent":1264542},"name":"Shivpuri","stat":{"level":1.0,"population":164215},"zoom":8},{"id":1256468,"coord":{"lon":79.316673,"lat":28.716669},"country":"IN","geoname":{"cl":"P","code":"PPL","parent":1253626},"langs":[{"link":"http://en.wikipedia.org/wiki/Shishgarh"}],"name":"Shishgarh","stat":{"level":1.0,"population":23471},"zoom":10},{"id":1256475,"coord":{"lon":74.883331,"lat":21.35},"country":"IN","geoname":{"cl":"P","code":"PPL","parent":1264418},"langs":[{"link":"http://en.wikipedia.org/wiki/Shirpur"},{"ru":"Ширпуре"}],"name":"Shirpur","stat":{"level":1.0,"population":69540},"zoom":10},{"id":1256483,"coord":{"lon":75.583328,"lat":15.23333},"country":"IN","geoname":{"cl":"P","code":"PPL","parent":1267701},"langs":[{"link":"http://en.wikipedia.org/wiki/Shirahatti"}],"name":"Shirhatti","stat":{"level":1.0,"population":16604},"zoom":12},{"id":1256489,"coord":{"lon":74.48333,"lat":19.76667},"country":"IN","geoname":{"cl":"P","code":"PPL","parent":1264418},"langs":[{"link":"http://en.wikipedia.org/wiki/Shirdi"},{"ru":"Ширди"}],"name":"Shirdi","stat":{"level":1.0,"population":31978},"zoom":11},{"id":1256515,"coord":{"lon":75.566673,"lat":13.91667},"country":"IN","geoname":{"cl":"P","code":"PPL","parent":1267701},"name":"Shimoga","stat":{"level":1.0,"population":319550},"zoom":8},{"id":1256523,"coord":{"lon":91.883133,"lat":25.56892},"country":"IN","geoname":{"cl":"P","code":"PPLA","parent":1263207},"name":"Shillong","stat":{"level":1.0,"population":132842},"zoom":8},{"id":1256525,"coord":{"lon":88.433327,"lat":26.700001},"country":"IN","geoname":{"cl":"P","code":"PPL","parent":1252881},"name":"Shiliguri","stat":{"level":1.0,"population":515574},"zoom":7},{"id":1256529,"coord":{"lon":78.599998,"lat":27.1},"country":"IN","geoname":{"cl":"P","code":"PPL","parent":1253626},"langs":[{"en":"Shikohabad"},{"link":"http://en.wikipedia.org/wiki/Shikohabad"},{"pt":"Shikohabad"}],"name":"Shikohabad","stat":{"level":1.0,"population":99678},"zoom":9},{"id":1256532,"coord":{"lon":78.01667,"lat":28.283333},"country":"IN","geoname":{"cl":"P","code":"PPL","parent":1253626},"name":"Shikarpur","stat":{"level":1.0,"population":34649},"stations":[{"id":7809,"dist":94,"kf":1},{"id":35561,"dist":81,"kf":1}],"zoom":10},{"id":1256537,"coord":{"lon":75.349998,"lat":14.26667},"country":"IN","geoname":{"cl":"P","code":"PPL","parent":1267701},"name":"Shikarpur","stat":{"level":1.0,"population":33273},"zoom":9},{"id":1256539,"coord":{"lon":75.23333,"lat":15.0},"country":"IN","geoname":{"cl":"P","code":"PPL","parent":1267701},"langs":[{"link":"http://en.wikipedia.org/wiki/Shiggaon"}],"name":"Shiggaon","stat":{"level":1.0,"population":26118},"zoom":11},{"id":1256558,"coord":{"lon":76.333328,"lat":9.7},"country":"IN","geoname":{"cl":"P","code":"PPL","parent":1267254},"name":"Shertallai","stat":{"level":1.0,"population":45474},"zoom":10},{"id":1256569,"coord":{"lon":78.583328,"lat":29.35},"country":"IN","geoname":{"cl":"P","code":"PPL","parent":1253626},"langs":[{"link":"http://en.wikipedia.org/wiki/Sherkot"}],"name":"Sherkot","stat":{"level":1.0,"population":57361},"zoom":10},{"id":1256572,"coord":{"lon":84.783333,"lat":24.566669},"country":"IN","geoname":{"cl":"P","code":"PPL","parent":1275715},"langs":[{"link":"http://en.wikipedia.org/wiki/Sherghati"}],"name":"Sherghati","stat":{"level":1.0,"population":35279},"zoom":10},{"id":1256593,"coord":{"lon":76.699997,"lat":25.66667},"country":"IN","geoname":{"cl":"P","code":"PPL","parent":1264542},"langs":[{"link":"http://en.wikipedia.org/wiki/Sheopur"}],"name":"Sheopur","stat":{"level":1.0,"population":62416},"zoom":8},{"id":1256597,"coord":{"lon":85.300003,"lat":26.51667},"country":"IN","geoname":{"cl":"P","code":"PPL","parent":1275715},"name":"Sheohar","stat":{"level":1.0,"population":24979},"zoom":10},{"id":1256598,"coord":{"lon":73.066673,"lat":25.15},"country":"IN","geoname":{"cl":"P","code":"PPL","parent":1258899},"langs":[{"link":"http://en.wikipedia.org/wiki/Sheoganj"}],"name":"Sheoganj","stat":{"level":1.0,"population":26804},"zoom":8},{"id":1256620,"coord":{"lon":76.683327,"lat":20.783331},"country":"IN","geoname":{"cl":"P","code":"PPL","parent":1264418},"langs":[{"link":"http://en.wikipedia.org/wiki/Shegaon"}],"name":"Shegaon","stat":{"level":1.0,"population":56449},"zoom":10},{"id":1256639,"coord":{"lon":88.466667,"lat":23.25},"country":"IN","geoname":{"cl":"P","code":"PPL","parent":1252881},"langs":[{"link":"http://en.wikipedia.org/wiki/Shantipur"}],"name":"Shantipur","stat":{"level":1.0,"population":149983},"stations":[{"id":7784,"dist":66,"kf":1}],"zoom":9},{"id":1256659,"coord":{"lon":79.433327,"lat":27.533331},"country":"IN","geoname":{"cl":"P","code":"PPL","parent":1253626},"name":"Shamsabad","stat":{"level":1.0,"population":25266},"zoom":11},{"id":1256660,"coord":{"lon":78.133331,"lat":27.01667},"country":"IN","geoname":{"cl":"P","code":"PPL","parent":1253626},"langs":[{"link":"http://en.wikipedia.org/wiki/Shamsabad%2C_Agra"}],"name":"Shamsabad","stat":{"level":1.0,"population":31009},"zoom":10},{"id":1256671,"coord":{"lon":77.316673,"lat":29.450001},"country":"IN","geoname":{"cl":"P","code":"PPL","parent":1253626},"langs":[{"en":"Shamli"},{"link":"http://en.wikipedia.org/wiki/Shamli"},{"pt":"Shamli"}],"name":"Shamli","stat":{"level":1.0,"population":97966},"stations":[{"id":7809,"dist":99,"kf":1}],"zoom":9},{"id":1256673,"coord":{"lon":75.633331,"lat":24.183331},"country":"IN","geoname":{"cl":"P","code":"PPL","parent":1264542},"langs":[{"link":"http://en.wikipedia.org/wiki/Shamgarh"}],"name":"Shamgarh","stat":{"level":1.0,"population":23075},"zoom":9},{"id":1256693,"coord":{"lon":76.26667,"lat":23.433331},"country":"IN","geoname":{"cl":"P","code":"PPL","parent":1264542},"name":"Shajapur","stat":{"level":1.0,"population":53346},"zoom":9},{"id":1256698,"coord":{"lon":85.849998,"lat":25.15},"country":"IN","geoname":{"cl":"P","code":"PPL","parent":1275715},"name":"Shaikhpura","stat":{"level":1.0,"population":46718},"stations":[{"id":7796,"dist":90,"kf":1}],"zoom":10},{"id":1256705,"coord":{"lon":75.966667,"lat":27.383333},"country":"IN","geoname":{"cl":"P","code":"PPL","parent":1258899},"name":"Shahpura","stat":{"level":1.0,"population":33273},"stations":[{"id":7814,"dist":65,"kf":1}],"zoom":9},{"id":1256706,"coord":{"lon":74.933327,"lat":25.633329},"country":"IN","geoname":{"cl":"P","code":"PPL","parent":1258899},"langs":[{"link":"http://en.wikipedia.org/wiki/Shahpura%2C_Bhilwara"}],"name":"Shahpura","stat":{"level":1.0,"population":29259},"zoom":9},{"id":1256713,"coord":{"lon":77.550003,"lat":29.35},"country":"IN","geoname":{"cl":"P","code":"PPL","parent":1253626},"langs":[{"link":"http://en.wikipedia.org/wiki/Shahpur%2C_Uttar_Pradesh"},{"ru":"Шахпура"}],"name":"Shahpur","stat":{"level":1.0,"population":18874},"stations":[{"id":7809,"dist":96,"kf":1},{"id":35561,"dist":96,"kf":1}],"zoom":11},{"id":1256715,"coord":{"lon":84.449997,"lat":25.58333},"country":"IN","geoname":{"cl":"P","code":"PPL","parent":1275715},"name":"Shahpur","stat":{"level":1.0,"population":15850},"stations":[{"id":7796,"dist":64,"kf":1}],"zoom":11},{"id":1256720,"coord":{"lon":76.216667,"lat":21.23333},"country":"IN","geoname":{"cl":"P","code":"PPL","parent":1264542},"name":"Shahpur","stat":{"level":1.0,"population":19370},"zoom":12},{"id":1256722,"coord":{"lon":76.833328,"lat":16.700001},"country":"IN","geoname":{"cl":"P","code":"PPL","parent":1267701},"langs":[{"link":"http://en.wikipedia.org/wiki/Shahpur%2C_Karnataka"},{"ru":"Шахпура"}],"name":"Shahpur","stat":{"level":1.0,"population":31422},"zoom":10},{"id":1256728,"coord":{"lon":79.916672,"lat":27.883329},"country":"IN","geoname":{"cl":"P","code":"PPL","parent":1253626},"langs":[{"link":"http://en.wikipedia.org/wiki/Shahjahanpur"}],"name":"Shahjahanpur","stat":{"level":1.0,"population":320434},"zoom":8},{"id":1256731,"coord":{"lon":79.316673,"lat":28.549999},"country":"IN","geoname":{"cl":"P","code":"PPL","parent":1253626},"name":"Shahi","stat":{"level":1.0,"population":16064},"zoom":11},{"id":1256735,"coord":{"lon":82.683327,"lat":26.049999},"country":"IN","geoname":{"cl":"P","code":"PPL","parent":1253626},"name":"Shahganj","stat":{"level":1.0,"population":26510},"stations":[{"id":7804,"dist":69,"kf":1},{"id":30125,"dist":95,"kf":1}],"zoom":9},{"id":1256739,"coord":{"lon":81.349998,"lat":23.283331},"country":"IN","geoname":{"cl":"P","code":"PPL","parent":1264542},"langs":[{"en":"Shahdol"},{"link":"http://en.wikipedia.org/wiki/Shahdol"},{"sv":"Shahdol"}],"name":"Shahdol","stat":{"level":1.0,"population":89289},"zoom":8},{"id":1256750,"coord":{"lon":74.466667,"lat":21.549999},"country":"IN","geoname":{"cl":"P","code":"PPL","parent":1264418},"name":"Shahada","stat":{"level":1.0,"population":58402},"zoom":10},{"id":1256752,"coord":{"lon":76.871498,"lat":30.1681},"country":"IN","geoname":{"cl":"P","code":"PPL","parent":1270260},"name":"Shahabad","stat":{"level":1.0,"population":39323},"zoom":10},{"id":1256753,"coord":{"lon":79.01667,"lat":28.566669},"country":"IN","geoname":{"cl":"P","code":"PPL","parent":1253626},"name":"Shahabad","stat":{"level":1.0,"population":34962},"zoom":10},{"id":1256755,"coord":{"lon":79.949997,"lat":27.65},"country":"IN","geoname":{"cl":"P","code":"PPL","parent":1253626},"langs":[{"link":"http://en.wikipedia.org/wiki/Shahabad%2C_Hardoi"}],"name":"Shahabad","stat":{"level":1.0,"population":73606},"zoom":10},{"id":1256759,"coord":{"lon":76.933327,"lat":17.133329},"country":"IN","geoname":{"cl":"P","code":"PPL","parent":1267701},"name":"Shahabad","stat":{"level":1.0,"population":52952},"zoom":9},{"id":1256812,"coord":{"lon":92.833328,"lat":23.299999},"country":"IN","geoname":{"cl":"P","code":"PPL","parent":1262963},"langs":[{"link":"http://en.wikipedia.org/wiki/Serchhip"}],"name":"Serchhip","stat":{"level":1.0,"population":20244},"zoom":9},{"id":1256814,"coord":{"lon":77.283333,"lat":17.183331},"country":"IN","geoname":{"cl":"P","code":"PPL","parent":1267701},"langs":[{"link":"http://en.wikipedia.org/wiki/Sedam"},{"ru":"Серам"}],"name":"Seram","stat":{"level":1.0,"population":35134},"zoom":10},{"id":1256823,"coord":{"lon":77.466667,"lat":22.450001},"country":"IN","geoname":{"cl":"P","code":"PPL","parent":1264542},"langs":[{"link":"http://en.wikipedia.org/wiki/Seoni_Malwa"}],"name":"Seoni Malwa","stat":{"level":1.0,"population":28334},"zoom":9},{"id":1256826,"coord":{"lon":79.533333,"lat":22.08333},"country":"IN","geoname":{"cl":"P","code":"PPL","parent":1264542},"langs":[{"link":"http://en.wikipedia.org/wiki/Seoni%2C_Madhya_Pradesh"}],"name":"Seoni","stat":{"level":1.0,"population":101379},"zoom":9},{"id":1256828,"coord":{"lon":78.779716,"lat":26.15778},"country":"IN","geoname":{"cl":"P","code":"PPL","parent":1264542},"langs":[{"link":"http://en.wikipedia.org/wiki/Seondha"}],"name":"Seondha","stat":{"level":1.0,"population":21326},"zoom":10},{"id":1256832,"coord":{"lon":78.583328,"lat":29.216669},"country":"IN","geoname":{"cl":"P","code":"PPL","parent":1253626},"langs":[{"link":"http://en.wikipedia.org/wiki/Seohara"}],"name":"Seohara","stat":{"level":1.0,"population":46546},"zoom":11},{"id":1256854,"coord":{"lon":75.099998,"lat":21.683331},"country":"IN","geoname":{"cl":"P","code":"PPL","parent":1264542},"langs":[{"link":"http://en.wikipedia.org/wiki/Sendhwa"}],"name":"Sendhwa","stat":{"level":1.0,"population":54530},"zoom":9},{"id":1256913,"coord":{"lon":77.083328,"lat":23.200001},"country":"IN","geoname":{"cl":"P","code":"PPL","parent":1264542},"langs":[{"en":"Sehore"},{"link":"http://en.wikipedia.org/wiki/Sehore"},{"sv":"Sehore"}],"name":"Sehore","stat":{"level":1.0,"population":99284},"zoom":9},{"id":1256922,"coord":{"lon":78.542633,"lat":17.504271},"country":"IN","geoname":{"cl":"P","code":"PPL","parent":1278629},"name":"Secunderabad","stat":{"level":1.0,"population":204182},"stations":[{"id":7830,"dist":30,"kf":1},{"id":7831,"dist":38,"kf":1}],"zoom":12},{"id":1256929,"coord":{"lon":71.466667,"lat":22.549999},"country":"IN","geoname":{"cl":"P","code":"PPL","parent":1270770},"name":"Sayla","stat":{"level":1.0,"population":15376},"stations":[{"id":34351,"dist":77,"kf":1}],"zoom":10},{"id":1256949,"coord":{"lon":76.366669,"lat":25.98333},"country":"IN","geoname":{"cl":"P","code":"PPL","parent":1258899},"name":"Sawai Madhopur","stat":{"level":1.0,"population":108612},"zoom":7},{"id":1256959,"coord":{"lon":75.883331,"lat":21.15},"country":"IN","geoname":{"cl":"P","code":"PPL","parent":1264418},"langs":[{"link":"http://en.wikipedia.org/wiki/Savda"}],"name":"Savda","stat":{"level":1.0,"population":19903},"zoom":13},{"id":1256967,"coord":{"lon":75.349998,"lat":14.96667},"country":"IN","geoname":{"cl":"P","code":"PPL","parent":1267701},"langs":[{"link":"http://en.wikipedia.org/wiki/Savanur"}],"name":"Savanur","stat":{"level":1.0,"population":37819},"zoom":10},{"id":1256968,"coord":{"lon":73.816673,"lat":15.9},"country":"IN","geoname":{"cl":"P","code":"PPL","parent":1264418},"langs":[{"link":"http://en.wikipedia.org/wiki/Sawantvadi"}],"name":"Savantvadi","stat":{"level":1.0,"population":23384},"zoom":9},{"id":1256974,"coord":{"lon":78.783333,"lat":21.65},"country":"IN","geoname":{"cl":"P","code":"PPL","parent":1264542},"langs":[{"link":"http://en.wikipedia.org/wiki/Sausar"}],"name":"Sausar","stat":{"level":1.0,"population":26704},"stations":[{"id":7775,"dist":68,"kf":1}],"zoom":10},{"id":1256983,"coord":{"lon":75.116669,"lat":15.78333},"country":"IN","geoname":{"cl":"P","code":"PPL","parent":1267701},"name":"Saundatti","stat":{"level":1.0,"population":40091},"zoom":10},{"id":1256989,"coord":{"lon":77.25,"lat":11.51667},"country":"IN","geoname":{"cl":"P","code":"PPL","parent":1255053},"name":"Sathyamangalam","stat":{"level":1.0,"population":34011},"stations":[{"id":7825,"dist":57,"kf":1}],"zoom":10},{"id":1256995,"coord":{"lon":77.933327,"lat":9.36667},"country":"IN","geoname":{"cl":"P","code":"PPL","parent":1255053},"langs":[{"link":"http://en.wikipedia.org/wiki/Sattur"}],"name":"Sattur","stat":{"level":1.0,"population":31856},"zoom":11},{"id":1257001,"coord":{"lon":80.183327,"lat":16.4},"country":"IN","geoname":{"cl":"P","code":"PPL","parent":1278629},"langs":[{"link":"http://en.wikipedia.org/wiki/Sattenapalli"}],"name":"Sattenapalle","stat":{"level":1.0,"population":53603},"zoom":9},{"id":1257022,"coord":{"lon":80.833336,"lat":24.583332},"country":"IN","geoname":{"cl":"P","code":"PPL","parent":1264542},"name":"Satna","stat":{"level":1.0,"population":257778},"zoom":7},{"id":1257055,"coord":{"lon":73.98333,"lat":17.683331},"country":"IN","geoname":{"cl":"P","code":"PPL","parent":1264418},"name":"Satara","stat":{"level":1.0,"population":112793},"zoom":8},{"id":1257060,"coord":{"lon":74.199997,"lat":20.58333},"country":"IN","geoname":{"cl":"P","code":"PPL","parent":1264418},"langs":[{"link":"http://en.wikipedia.org/wiki/Satana%2C_India"}],"name":"Satana","stat":{"level":1.0,"population":34440},"zoom":10},{"id":1257066,"coord":{"lon":74.033333,"lat":18.33333},"country":"IN","geoname":{"cl":"P","code":"PPL","parent":1264418},"langs":[{"link":"http://en.wikipedia.org/wiki/Saswad"}],"name":"Sasvad","stat":{"level":1.0,"population":29858},"zoom":10},{"id":1257093,"coord":{"lon":75.0,"lat":26.066669},"country":"IN","geoname":{"cl":"P","code":"PPL","parent":1258899},"langs":[{"link":"http://en.wikipedia.org/wiki/Sarwar"}],"name":"Sarwar","stat":{"level":1.0,"population":17860},"zoom":10},{"id":1257149,"coord":{"lon":72.5,"lat":22.98333},"country":"IN","geoname":{"cl":"P","code":"PPL","parent":1270770},"langs":[{"link":"http://en.wikipedia.org/wiki/Sarkhej"}],"name":"Sarkhej","stat":{"level":1.0,"population":30341},"stations":[{"id":7758,"dist":17,"kf":1}],"zoom":11},{"id":1257191,"coord":{"lon":75.25,"lat":29.700001},"country":"IN","geoname":{"cl":"P","code":"PPL","parent":1259223},"langs":[{"link":"http://en.wikipedia.org/wiki/Sardulgarh"}],"name":"Sardulgarh","stat":{"level":1.0,"population":17270},"zoom":10},{"id":1257196,"coord":{"lon":77.616669,"lat":29.15},"country":"IN","geoname":{"cl":"P","code":"PPL","parent":1253626},"langs":[{"link":"http://en.wikipedia.org/wiki/Sardhana"}],"name":"Sardhana","stat":{"level":1.0,"population":49857},"stations":[{"id":7809,"dist":81,"kf":1},{"id":35561,"dist":78,"kf":1}],"zoom":10},{"id":1257198,"coord":{"lon":74.48333,"lat":28.433331},"country":"IN","geoname":{"cl":"P","code":"PPL","parent":1258899},"name":"Sardarshahr","stat":{"level":1.0,"population":86672},"zoom":8},{"id":1257219,"coord":{"lon":79.099998,"lat":28.5},"country":"IN","geoname":{"cl":"P","code":"PPL","parent":1253626},"name":"Sarauli","stat":{"level":1.0,"population":20923},"zoom":11},{"id":1257237,"coord":{"lon":76.466667,"lat":23.566669},"country":"IN","geoname":{"cl":"P","code":"PPL","parent":1264542},"langs":[{"link":"http://en.wikipedia.org/wiki/Sarangpur"}],"name":"Sarangpur","stat":{"level":1.0,"population":35827},"zoom":10},{"id":1257259,"coord":{"lon":83.0,"lat":21.33333},"country":"IN","geoname":{"cl":"P","code":"PPL","parent":1444364},"langs":[{"link":"http://en.wikipedia.org/wiki/Saraipali"}],"name":"Saraipali","stat":{"level":1.0,"population":18394},"zoom":9},{"id":1257260,"coord":{"lon":82.916672,"lat":26.01667},"country":"IN","geoname":{"cl":"P","code":"PPL","parent":1253626},"name":"Sarai Mir","stat":{"level":1.0,"population":17849},"stations":[{"id":7804,"dist":63,"kf":1}],"zoom":10},{"id":1257268,"coord":{"lon":81.51667,"lat":25.383329},"country":"IN","geoname":{"cl":"P","code":"PPL","parent":1253626},"name":"Sarai Akil","stat":{"level":1.0,"population":17443},"stations":[{"id":30125,"dist":69,"kf":1}],"zoom":10},{"id":1257307,"coord":{"lon":78.900002,"lat":21.383329},"country":"IN","geoname":{"cl":"P","code":"PPL","parent":1264418},"langs":[{"link":"http://en.wikipedia.org/wiki/Saoner"}],"name":"Saoner","stat":{"level":1.0,"population":29638},"stations":[{"id":7775,"dist":36,"kf":1}],"zoom":8},{"id":1257354,"coord":{"lon":88.199997,"lat":22.549999},